[{"code":"CDG","name":"Charles De Gaulle","coordinates":{"lon":2.567023,"lat":49.003197},"time_zone":"Europe/Paris","name_translations":{"en":"Charles De Gaulle","de":"Paris-Charles-de-Gaulle","zh-CN":"巴黎戴高乐机场","ru":"","tr":"Charles Degaulle","it":"Ch. De Gaulle","fr":"Ch. De Gaulle","es":"Ch. De Gaulle","th":"สนามบินปารีสชาร์ลเดอโกล"},"country_code":"FR","city_code":"PAR","cityName":"Paris"},{"code":"ORY","name":"Orly","coordinates":{"lon":2.3597,"lat":48.728283},"time_zone":"Europe/Paris","name_translations":{"de":"Paris Orly","en":"Orly","zh-CN":"巴黎奥利机场","tr":"Orly","it":"Orly","fr":"Orly","es":"Orly","th":"สนามบินปารีสออร์คลีย์"},"country_code":"FR","city_code":"PAR","cityName":"Paris"},{"code":"MDT","name":"Harrisburg International","coordinates":{"lon":-76.75606,"lat":40.196007},"time_zone":"America/New_York","name_translations":{"de":"Harrisburg","en":"Harrisburg International","zh-CN":"哈里斯堡机场","tr":null,"it":"Harrisburg","fr":"Harrisburg","es":"Harrisburg","th":"แฮรริสเบิร์ก อินเตอร์เนชั่นแนล"},"country_code":"US","city_code":"HAR","cityName":"Harrisburg"},{"code":"LHR","name":"Heathrow","coordinates":{"lon":-0.453566,"lat":51.469604},"time_zone":"Europe/London","name_translations":{"de":"London Heathrow","en":"Heathrow","zh-CN":"伦敦希思罗机场","tr":"Heathrow","ru":"Хитроу","it":"Heathrow","fr":"Heathrow","es":"Heathrow","th":"สนามบินลอนดอนฮีทโธรว์"},"country_code":"GB","city_code":"LON","cityName":"London"},{"code":"ORD","name":"Chicago O'hare International","coordinates":{"lon":-87.90488,"lat":41.976913},"time_zone":"America/Chicago","name_translations":{"en":"Chicago O'hare International","de":"O’Hare International","zh-CN":"芝加哥奥黑尔机场","ru":"","tr":"O'Hare","it":"O'Hare International","fr":"O'Hare International","es":"O'Hare International","th":"สนามบินนานาชาติชิคาโกโอแฮร์"},"country_code":"US","city_code":"CHI","cityName":"Chicago"},{"code":"BHX","name":"Birmingham International Airport","coordinates":{"lon":-1.733256,"lat":52.45252},"time_zone":"Europe/London","name_translations":{"de":"Birmingham","en":"Birmingham International Airport","zh-CN":"伯明翰机场","tr":"Birmingham Int. Apt.","it":"Birmingham","fr":"Birmingham","es":"Birmingham","th":"สนามบินเบอร์มิงแฮม"},"country_code":"GB","city_code":"BHX","cityName":"Birmingham"},{"code":"FRA","name":"Frankfurt International Airport","coordinates":{"lon":8.570773,"lat":50.050735},"time_zone":"Europe/Berlin","name_translations":{"de":"Frankfurt Main","en":"Frankfurt International Airport","zh-CN":"法兰克福梅因机场","tr":"Rhein-Main","it":"Frankfurt","fr":"Frankfurt","es":"Frankfurt","th":"สนามบินแฟรงก์เฟิร์ต"},"country_code":"DE","city_code":"FRA","cityName":"Frankfurt"},{"code":"HBE","name":"Borg el Arab","coordinates":{"lon":29.686504,"lat":30.922234},"time_zone":"Africa/Cairo","name_translations":{"de":"Borg El Arab","en":"Borg el Arab","zh-CN":"亚历山大机场","tr":null,"ru":"Борк Эль Араб","it":"Borg El Arab","fr":"Borg El Arab","es":"Borg El Arab","th":"อะเล็กซานเดรีย เบิร์จ อัลอาหรับ"},"country_code":"EG","city_code":"ALY","cityName":"Alexandria"},{"code":"PNP","name":"Girua","coordinates":{"lon":148.30873,"lat":-8.807474},"time_zone":"Pacific/Port_Moresby","name_translations":{"de":"Popondetta","en":"Girua","zh-CN":"皮蓬德塔机场","tr":null,"it":"Girua","fr":"Girua","es":"Girua","th":"สนามบินโพพอนแด็ตตา"},"country_code":"PG","city_code":"PNP","cityName":"Popondetta"},{"code":"YVR","name":"Vancouver International","coordinates":{"lon":-123.17919,"lat":49.1947},"time_zone":"America/Vancouver","name_translations":{"en":"Vancouver International","de":"Vancouver international ","zh-CN":"温哥华机场","ru":"","tr":"International","it":"Vancouver Intl","fr":"Vancouver Intl","es":"Vancouver Intl","th":"สนามบินนานาชาติแวนคูเวอร์"},"country_code":"CA","city_code":"YVR","cityName":"Vancouver"},{"code":"TSA","name":"Taipei Songshan (Sung Shan)","coordinates":{"lon":121.551926,"lat":25.06279},"time_zone":"Asia/Taipei","name_translations":{"de":"Taipeh Sung Shan","en":"Taipei Songshan (Sung Shan)","zh-CN":"台北松山机场","tr":"Sung Shan","it":"Sung Shan","fr":"Sung Shan","es":"Sung Shan","th":"ซงชาน (ไทเป)"},"country_code":"TW","city_code":"TPE","cityName":"Taipei"},{"code":"MRU","name":"Sir Seewoosagur Ramgoolam International","coordinates":{"lon":57.67663,"lat":-20.431997},"time_zone":"Indian/Mauritius","name_translations":{"de":"Mauritius Plaisance","en":"Sir Seewoosagur Ramgoolam International","zh-CN":"西沃萨古尔机场","tr":null,"it":"Sir Seewoosagur Ram.","fr":"Sir Seewoosagur Ram.","es":"Sir Seewoosagur Ram.","th":"สนามบินมอริเชียส"},"country_code":"MU","city_code":"MRU","cityName":"Plaisance"},{"code":"TNR","name":"Ivato International Airport","coordinates":{"lon":47.47503,"lat":-18.799631},"time_zone":"Indian/Antananarivo","name_translations":{"de":"Antananarivo","en":"Ivato International Airport","zh-CN":"塔那那利佛机场","tr":null,"ru":"Антананариву","it":"Antananarivo","fr":"Antananarivo","es":"Antananarivo","th":"สนามบินอันตานานาริโว"},"country_code":"MG","city_code":"TNR","cityName":"Antananarivo"},{"code":"PVG","name":"Shanghai Pudong International","coordinates":{"lon":121.799805,"lat":31.151825},"time_zone":"Asia/Shanghai","name_translations":{"en":"Shanghai Pudong International","de":"Shanghai Pudong International","zh-CN":"上海浦东机场","ru":"Шанхай (Пудун)","tr":"Pu Dong Airport","it":"Pu Dong","fr":"Pu Dong","es":"Pu Dong","th":"สนามบินนานาชาติเซี่ยงไฮ้ผู่ตง"},"country_code":"CN","city_code":"SHA","cityName":"Shanghai"},{"code":"JNB","name":"Oliver Reginald Tambo International (Jan Smuts International)","coordinates":{"lon":28.231314,"lat":-26.132664},"time_zone":"Africa/Johannesburg","name_translations":{"en":"Oliver Reginald Tambo International (Jan Smuts International)","de":"Johannesburg Internationale","zh-CN":"约翰内斯堡机场","ru":"","tr":"","it":"OR Tambo","fr":"OR Tambo","es":"OR Tambo","th":"สนามบินโออาร์แทมโบ"},"country_code":"ZA","city_code":"JNB","cityName":"Johannesburg"},{"code":"RUN","name":"Gillot","coordinates":{"lon":55.511875,"lat":-20.892},"time_zone":"Indian/Reunion","name_translations":{"de":"Saint Denis de la Reunion","en":"Gillot","tr":null,"it":"Gillot","fr":"Gillot","es":"Gillot","th":"สนามบินเซนต์เดนิส"},"country_code":"RE","city_code":"RUN","cityName":"St Denis de la Reunion"},{"code":"NBO","name":"Jomo Kenyatta International","coordinates":{"lon":36.92578,"lat":-1.319167},"time_zone":"Africa/Nairobi","name_translations":{"en":"Jomo Kenyatta International","de":"Jomo Kenyatta International","zh-CN":"乔莫肯亚塔机场","ru":"","tr":"Jomo Kenyatta Intl","it":"Jomo Kenyatta Intl","fr":"Jomo Kenyatta Intl","es":"Jomo Kenyatta Intl","th":"สนามบินนานาชาติโจโมเคนยัตตา"},"country_code":"KE","city_code":"NBO","cityName":"Nairobi"},{"code":"CPT","name":"Cape Town International","coordinates":{"lon":18.596489,"lat":-33.968906},"time_zone":"Africa/Johannesburg","name_translations":{"en":"Cape Town International","de":"Cape Town International","zh-CN":"卡普施塔德机场","ru":"","tr":"","it":"Cape Town Intl","fr":"Cape Town Intl","es":"Cape Town Intl","th":"สนามบินนานาชาติเคปทาวน์"},"country_code":"ZA","city_code":"CPT","cityName":"Cape Town"},{"code":"DUR","name":"Durban International","coordinates":{"lon":31.116388,"lat":-29.614445},"time_zone":"Africa/Johannesburg","name_translations":{"de":"Durban","en":"Durban International","zh-CN":"德班机场","tr":null,"it":"King Shaka Intl","fr":"King Shaka Intl","es":"King Shaka Intl","th":"สนามบินนานาชาติคิงชากา"},"country_code":"ZA","city_code":"DUR","cityName":"Durban"},{"code":"BOM","name":"Chhatrapati Shivaji International (Sahar International)","coordinates":{"lon":72.87497,"lat":19.095509},"time_zone":"Asia/Kolkata","name_translations":{"en":"Chhatrapati Shivaji International (Sahar International)","de":"Chhatrapati Shivaji International","zh-CN":"孟买机场","ru":"","tr":"Chhatrapati Shivaji International","it":"Chhatrapati Shivaji","fr":"Chhatrapati Shivaji","es":"Chhatrapati Shivaji","th":"สนามบินนานาชาติฉัตรปาตีศิวะจี"},"country_code":"IN","city_code":"BOM","cityName":"Mumbai"},{"code":"BLR","name":"Bangalore International Airport","coordinates":{"lon":77.70556,"lat":13.198889},"time_zone":"Asia/Kolkata","name_translations":{"de":"Bangalore","en":"Bangalore International Airport","zh-CN":"班加罗尔机场","tr":null,"it":"Bengaluru Intl","fr":"Bengaluru Intl","es":"Bengaluru Intl","th":"สนามบินบังกาลอร์"},"country_code":"IN","city_code":"BLR","cityName":"Bangalore"},{"code":"PER","name":"Perth International","coordinates":{"lon":115.960236,"lat":-31.933603},"time_zone":"Australia/Perth","name_translations":{"de":"Perth","en":"Perth International","zh-CN":"佩斯机场","tr":null,"it":"Perth","fr":"Perth","es":"Perth","th":"สนามบินเพิร์ท"},"country_code":"AU","city_code":"PER","cityName":"Perth"},{"code":"HKG","name":"Hong Kong International","coordinates":{"lon":113.93649,"lat":22.315248},"time_zone":"Asia/Hong_Kong","name_translations":{"en":"Hong Kong International","de":"Chek Lap Kok","zh-CN":"香港国际机场","ru":"","tr":"","it":"Hong Kong Intl","fr":"Hong Kong Intl","es":"Hong Kong Intl","th":"สนามบินนานาชาติฮ่องกง"},"country_code":"HK","city_code":"HKG","cityName":"Hong Kong"},{"code":"KUL","name":"Kuala Lumpur International Airport (klia)","coordinates":{"lon":101.70539,"lat":2.755672},"time_zone":"Asia/Kuala_Lumpur","name_translations":{"en":"Kuala Lumpur International Airport (klia)","de":"Kuala Lumpur International Airport (KLIA)","zh-CN":"吉隆坡国际机场","ru":"","tr":"","it":"Kuala Lumpur Intl","fr":"Kuala Lumpur Intl","es":"Kuala Lumpur Intl","th":"สนามบินนานาชาติกัวลาลัมเปอร์"},"country_code":"MY","city_code":"KUL","cityName":"Kuala Lumpur"},{"code":"SIN","name":"Singapore Changi","coordinates":{"lon":103.990204,"lat":1.361173},"time_zone":"Asia/Singapore","name_translations":{"en":"Singapore Changi","de":"Singapur","zh-CN":"新加坡樟宜机场","ru":"","tr":"Changi","it":"Changi","fr":"Changi","es":"Changi","th":"สนามบินชางงี"},"country_code":"SG","city_code":"SIN","cityName":"Singapore"},{"code":"DEL","name":"Indira Gandhi International","coordinates":{"lon":77.10079,"lat":28.556555},"time_zone":"Asia/Kolkata","name_translations":{"en":"Indira Gandhi International","de":"Indira Gandhi International ","zh-CN":"英迪拉甘地机场","ru":"","tr":"","it":"Indira Gandhi Intl","fr":"Indira Gandhi Intl","es":"Indira Gandhi Intl","th":"สนามบินนานาชาติเดลี"},"country_code":"IN","city_code":"DEL","cityName":"New Delhi"},{"code":"KVD","name":"Gyandzha","coordinates":{"lon":46.316666,"lat":40.733334},"time_zone":"Asia/Baku","name_translations":{"de":"Gyandzha","en":"Gyandzha","zh-CN":"占贾机场","tr":null,"ru":"Гянджа","it":"Gyandzha","fr":"Gyandzha","es":"Gyandzha","th":"สนามบินจีแยนด์ซา"},"country_code":"AZ","city_code":"KVD","cityName":"Gyandzha"},{"code":"LED","name":"Pulkovo","coordinates":{"lon":30.3083,"lat":59.806084},"time_zone":"Europe/Moscow","name_translations":{"en":"Pulkovo","de":"Pulkowo","zh-CN":"圣彼得堡机场","ru":"Пулково","tr":"Pulkovo","it":"Pulkovo","fr":"Pulkovo","es":"Pulkovo","th":"สนามบินพุลโคโว"},"country_code":"RU","city_code":"LED","cityName":"Saint Petersburg"},{"code":"GYD","name":"Heydar Aliyev International (Bina International)","coordinates":{"lon":50.05039,"lat":40.462486},"time_zone":"Asia/Baku","name_translations":{"de":"Baku","en":"Heydar Aliyev International (Bina International)","zh-CN":"盖达尔阿利耶夫国际机场","tr":null,"it":"Heydar Aliyev","fr":"Heydar Aliyev","es":"Heydar Aliyev","th":"สนามบินบากู"},"country_code":"AZ","city_code":"BAK","cityName":"Baku"},{"code":"LWO","name":"Snilow","coordinates":{"lon":23.955318,"lat":49.816418},"time_zone":"Europe/Kiev","name_translations":{"de":"Lwiw","en":"Snilow","zh-CN":"利沃夫","tr":"Lviv Int. Apt.","ru":"Скнилов","it":"Snilow","fr":"Snilow","es":"Snilow","th":"สนามบินลวีฟ"},"country_code":"UA","city_code":"LWO","cityName":"Lviv"},{"code":"KBP","name":"Boryspil (Borispol)","coordinates":{"lon":30.895206,"lat":50.341244},"time_zone":"Europe/Kiev","name_translations":{"en":"Boryspil (Borispol)","de":"Kiew-Boryspil","zh-CN":"鲍利斯波尔机场","ru":"Борисполь","tr":"Borispol","it":"Borispol","fr":"Borispol","es":"Borispol","th":"สนามบินบอรีสปีล"},"country_code":"UA","city_code":"IEV","cityName":"Kiev"},{"code":"MSQ","name":"Minsk National 2","coordinates":{"lon":28.032442,"lat":53.889725},"time_zone":"Europe/Minsk","name_translations":{"en":"Minsk National 2","de":"Minsk Nationale 2","zh-CN":"明斯克第二机场","ru":"Национальный аэропорт Минск","tr":"Minsk International 2","it":"Minsk Intl 2","fr":"Minsk Intl 2","es":"Minsk Intl 2","th":"สนามบินมินสก์"},"country_code":"BY","city_code":"MSQ","cityName":"Minsk"},{"code":"IST","name":"Ataturk","coordinates":{"lon":28.815277,"lat":40.976665},"time_zone":"Europe/Istanbul","name_translations":{"en":"Ataturk","de":"Atatürk","zh-CN":"阿塔图尔克机场","ru":"","tr":"","it":"Ataturk","fr":"Ataturk","es":"Ataturk","th":"สนามบินอาทาทูร์ค - ฝั่งยุโรป"},"country_code":"TR","city_code":"IST","cityName":"Istanbul"},{"code":"PRG","name":"Prague Vaclav Havel Airport","coordinates":{"lon":14.266638,"lat":50.10619},"time_zone":"Europe/Prague","name_translations":{"en":"Prague Vaclav Havel Airport","de":"Václav Havel Prag","zh-CN":"布拉格鲁济涅机场","ru":"Аэропорт им.Вацлава Гавела","tr":"Prague Vaclav Havel Airport","it":"Ruzyne","fr":"Ruzyne","es":"Ruzyne","th":"สนามบินปรากวาคลาฟฮาเวล"},"country_code":"CZ","city_code":"PRG","cityName":"Prague"},{"code":"TLV","name":"Ben Gurion International","coordinates":{"lon":34.870743,"lat":32.000454},"time_zone":"Asia/Jerusalem","name_translations":{"en":"Ben Gurion International","de":"Ben Gurion","zh-CN":"本古里安机场","ru":"","tr":"","it":"Ben Gurion Intl","fr":"Ben Gurion Intl","es":"Ben Gurion Intl","th":"สนามบินเบนกูเรียน"},"country_code":"IL","city_code":"TLV","cityName":"Tel Aviv Yafo"},{"code":"MXP","name":"Milano Malpensa","coordinates":{"lon":8.71237,"lat":45.627403},"time_zone":"Europe/Rome","name_translations":{"en":"Milano Malpensa","de":"Mailand Malpensa","zh-CN":"米兰马尔本萨机场","ru":"","tr":"Malpensa","it":"Aeroporto Malpensa","fr":"Malpensa","es":"Malpensa","th":"สนามบินมิลานมัลเพนซา"},"country_code":"IT","city_code":"MIL","cityName":"Milan"},{"code":"ESB","name":"Esenboga International","coordinates":{"lon":32.993145,"lat":40.11494},"time_zone":"Europe/Istanbul","name_translations":{"de":"Ankara","en":"Esenboga International","zh-CN":"埃森博阿机场","tr":"Esenboga","it":"Esenboga","fr":"Esenboga","es":"Esenboga","th":"สนามบินเอสเซนบัว"},"country_code":"TR","city_code":"ANK","cityName":"Ankara"},{"code":"DXB","name":"Dubai","coordinates":{"lon":55.352917,"lat":25.248665},"time_zone":"Asia/Dubai","name_translations":{"de":"Dubai","en":"Dubai","zh-CN":"迪拜机场","tr":null,"ru":"Дубай","it":"Dubai International","fr":"Dubai International","es":"Dubai International","th":"สนามบินนานาชาติดูไบ"},"country_code":"AE","city_code":"DXB","cityName":"Dubai"},{"code":"DME","name":"Domodedovo","coordinates":{"lon":37.899494,"lat":55.414566},"time_zone":"Europe/Moscow","name_translations":{"en":"Domodedovo","de":"Domodedowo","zh-CN":"多莫杰多沃机场","ru":"Домодедово","tr":"Domodedovo","it":"Domodedovo","fr":"Domodedovo","es":"Domodedovo","th":"สนามบินโดโมเดโดโว"},"country_code":"RU","city_code":"MOW","cityName":"Moscow"},{"code":"BJV","name":"Milas","coordinates":{"lon":27.672781,"lat":37.243954},"time_zone":"Europe/Istanbul","name_translations":{"en":"Milas","en-GB":"","en-AU":"","de":"Bodrum","zh-CN":"博德鲁姆机场","ru":"Бодрум Милас","tr":"","en-CA":"","en-NZ":"","en-IE":"","en-SG":"","en-IN":"","it":"Milas Airport","fr":"Milas Airport","es":"Milas Airport","th":"สนามบินบอดรัม"},"country_code":"TR","city_code":"BJV","cityName":"Milas"},{"code":"PEK","name":"Beijing Capital International","coordinates":{"lon":116.5871,"lat":40.078537},"time_zone":"Asia/Shanghai","name_translations":{"en":"Beijing Capital International","de":"Peking","zh-CN":"北京首都机场","ru":"","tr":"","it":"Capital","th":"สนามบินปักกิ่งแคปิตอล"},"country_code":"CN","city_code":"BJS","cityName":"Beijing"},{"code":"JFK","name":"John F Kennedy International","coordinates":{"lon":-73.78817,"lat":40.642334},"time_zone":"America/New_York","name_translations":{"en":"John F Kennedy International","de":"John F. Kennedy International","zh-CN":"肯尼迪机场","ru":"","tr":"John F. Kennedy","it":"John F Kennedy Intl","fr":"John F Kennedy Intl","es":"John F Kennedy Intl","th":"สนามบินจอห์นเอฟเคนเนดี"},"country_code":"US","city_code":"NYC","cityName":"New York"},{"code":"SAW","name":"Sabiha Gokcen","coordinates":{"lon":29.309189,"lat":40.904675},"time_zone":"Europe/Istanbul","name_translations":{"en":"Sabiha Gokcen","de":"Istanbul-Sabiha Gökçen","zh-CN":"撒比哈库肯机场","ru":"","tr":"Sabiha Gökçen Uluslararası Havalimanı","it":"Sabiha Gokcen","fr":"Sabiha Gokcen","es":"Sabiha Gokcen","th":"สนามบินซาบิฮาโกคเจน - ฝั่งเอเชีย"},"country_code":"TR","city_code":"IST","cityName":"Istanbul"},{"code":"HHN","name":"Frankfurt-Hahn","coordinates":{"lon":7.264167,"lat":49.948334},"time_zone":"Europe/Berlin","name_translations":{"de":"Frankfurt Hahn","en":"Frankfurt-Hahn","zh-CN":"法兰克福机场","tr":"Frankfurt-Hahn","it":"Frankfurt-Hahn","fr":"Frankfurt-Hahn","es":"Frankfurt-Hahn","th":"แฟรงค์เฟิร์ต ฮาห์น"},"country_code":"DE","city_code":"FRA","cityName":"Frankfurt"},{"code":"ISU","name":"Sulaimaniyah International","coordinates":{"lon":45.314716,"lat":35.5608},"time_zone":"Asia/Baghdad","name_translations":{"de":"Sulaimaniyya","en":"Sulaimaniyah International","zh-CN":"苏莱曼尼亚国际机场","tr":"Sulaimaniyah International Airport","it":"Sulaymaniyah Int.","fr":"Sulaymaniyah Int.","es":"Sulaymaniyah Int.","th":"สนามบินสุเลย์มานิยาห์"},"country_code":"IQ","city_code":"ISU","cityName":"Sulaimaniyah"},{"code":"LGW","name":"Gatwick","coordinates":{"lon":-0.161863,"lat":51.156807},"time_zone":"Europe/London","name_translations":{"en":"Gatwick","de":"London Gatwick","zh-CN":"伦敦盖德维克机场","ru":"","tr":"Gatwick","it":"Gatwick","fr":"Gatwick","es":"Gatwick","th":"สนามบินลอนดอนแกตวิก"},"country_code":"GB","city_code":"LON","cityName":"London"},{"code":"RIX","name":"Riga International","coordinates":{"lon":23.979807,"lat":56.92208},"time_zone":"Europe/Riga","name_translations":{"de":"Riga","en":"Riga International","zh-CN":"里加机场","tr":"Riga Int. Apt.","ru":"Рига","it":"Riga","fr":"Riga","es":"Riga","th":"สนามบินนานาชาติริกา"},"country_code":"LV","city_code":"RIX","cityName":"Riga"},{"code":"TBS","name":"Novo Alexeyevka International","coordinates":{"lon":44.958958,"lat":41.674065},"time_zone":"Asia/Tbilisi","name_translations":{"en":"Novo Alexeyevka International","de":"Tiflis Internationale","zh-CN":"第比利斯机场","ru":"","tr":"","it":"Novo Alexeyevka","fr":"Novo Alexeyevka","es":"Novo Alexeyevka","th":"สนามบินทบิลิซิ"},"country_code":"GE","city_code":"TBS","cityName":"Tbilisi"},{"code":"AMS","name":"Schiphol","coordinates":{"lon":4.763385,"lat":52.30907},"time_zone":"Europe/Amsterdam","name_translations":{"en":"Schiphol","de":"Schiphol","zh-CN":"斯希普霍尔机场","ru":"","tr":"Schiphol","it":"Amsterdam-Schiphol","fr":"Amsterdam-Schiphol","es":"Amsterdam-Schiphol","th":"สนามบินสกิปโพล"},"country_code":"NL","city_code":"AMS","cityName":"Amsterdam"},{"code":"VIE","name":"Vienna International","coordinates":{"lon":16.563583,"lat":48.11972},"time_zone":"Europe/Vienna","name_translations":{"en":"Vienna International","de":"Wien-Schwechat","zh-CN":"施韦夏特机场","ru":"","tr":"Vienna Int. Apt","it":"Vienna International","fr":"Vienna International","es":"Vienna International","th":"สนามบินชเวคัต"},"country_code":"AT","city_code":"VIE","cityName":"Vienna"},{"code":"ATH","name":"Athens International Airport \"Eleftherios Venizelos\"","coordinates":{"lon":23.946486,"lat":37.93635},"time_zone":"Europe/Athens","name_translations":{"en":"Athens International Airport \"Eleftherios Venizelos\"","de":"Athen-Eleftherios Venizelos","zh-CN":"海利尼肯机场","ru":"","tr":"Atina","it":"Eleftherios V.","fr":"Eleftherios V.","es":"Eleftherios V.","th":"สนามบินนานาชาติเอเธนส์ \"เอเลฟต์เทริออส เวนิเซลอส\""},"country_code":"GR","city_code":"ATH","cityName":"Athens"},{"code":"VKO","name":"Vnukovo","coordinates":{"lon":37.2921,"lat":55.60315},"time_zone":"Europe/Moscow","name_translations":{"de":"Moskau Wnukowo","en":"Vnukovo","zh-CN":"伏努科沃机场","tr":"Moskova","ru":"Внуково","it":"Vnukovo","fr":"Vnukovo","es":"Vnukovo","th":"สนามบินวนูโคโว"},"country_code":"RU","city_code":"MOW","cityName":"Moscow"},{"code":"BUS","name":"Batum","coordinates":{"lon":41.600555,"lat":41.610832},"time_zone":"Asia/Tbilisi","name_translations":{"de":"Batumi","en":"Batum","zh-CN":"巴统","tr":null,"ru":"Батуми","it":"Batumi","fr":"Batumi","es":"Batumi","th":"สนามบินบาตูมิ"},"country_code":"GE","city_code":"BUS","cityName":"Batumi"},{"code":"TGD","name":"Golubovci","coordinates":{"lon":19.246023,"lat":42.368023},"time_zone":"Europe/Podgorica","name_translations":{"de":"Podgorica","en":"Golubovci","zh-CN":"波德戈里察机场","tr":"Golubovci","it":"Golubovci","fr":"Golubovci","es":"Golubovci","th":"สนามบินพอดกอรีตซา"},"country_code":"ME","city_code":"TGD","cityName":"Podgorica"},{"code":"ZRH","name":"Zurich","coordinates":{"lon":8.561746,"lat":47.450603},"time_zone":"Europe/Zurich","name_translations":{"en":"Zurich","de":"Zürich-Kloten","zh-CN":"克洛滕机场","ru":"","tr":"Zurich Int. Apt","it":"Zurich Intl","fr":"Zurich Intl","es":"Zurich Intl","th":"สนามบินซูริก"},"country_code":"CH","city_code":"ZRH","cityName":"Zurich"},{"code":"DUS","name":"Düsseldorf International Airport","coordinates":{"lon":6.76558,"lat":51.278328},"time_zone":"Europe/Berlin","name_translations":{"en":"Düsseldorf International Airport","de":"Düsseldorf International","zh-CN":"杜塞尔夫机场","ru":"","tr":"Rhein-Ruhr International","it":"Düsseldorf","fr":"Düsseldorf","es":"Düsseldorf","th":"สนามบินนานาชาติดึสเซลดอร์ฟ"},"country_code":"DE","city_code":"DUS","cityName":"Dusseldorf"},{"code":"TIV","name":"Tivat","coordinates":{"lon":18.725555,"lat":42.40361},"time_zone":"Europe/Podgorica","name_translations":{"de":"Tivat","en":"Tivat","zh-CN":"蒂瓦特机场","tr":null,"ru":"Тиват","it":"Tivat","fr":"Tivat","es":"Tivat","th":"สนามบินติวัท"},"country_code":"ME","city_code":"TIV","cityName":"Tivat"},{"code":"BEG","name":"Belgrade Nikola Tesla","coordinates":{"lon":20.306944,"lat":44.819443},"time_zone":"Europe/Belgrade","name_translations":{"en":"Belgrade Nikola Tesla","de":"Nikola-Tesla-Flughafen Belgrad","zh-CN":"贝尔格莱德机场","ru":"","tr":"Beograd","it":"Nikola Tesla","fr":"Nikola Tesla","es":"Nikola Tesla","th":"สนามบินเบลเกรด นิโคลา เทสลา"},"country_code":"RS","city_code":"BEG","cityName":"Belgrade"},{"code":"LJU","name":"Brnik","coordinates":{"lon":14.454972,"lat":46.23102},"time_zone":"Europe/Ljubljana","name_translations":{"de":"Ljubljana","en":"Brnik","zh-CN":"卢布尔雅那机场","tr":"Brnik Apt.","it":"Brnik","fr":"Brnik","es":"Brnik","th":"สนามบินลูบลิยานา"},"country_code":"SI","city_code":"LJU","cityName":"Ljubljana"},{"code":"FCO","name":"Leonardo Da Vinci (Fiumicino)","coordinates":{"lon":12.250346,"lat":41.794594},"time_zone":"Europe/Rome","name_translations":{"en":"Leonardo Da Vinci (Fiumicino)","de":"Rom Fiumicino","zh-CN":"西阿姆皮诺机场","ru":"","tr":"Fiumicino","it":"Fiumicino","fr":"Fiumicino","es":"Fiumicino","th":"สนามบินโรมฟิวมิชิโน"},"country_code":"IT","city_code":"ROM","cityName":"Rome"},{"code":"CPH","name":"Kastrup","coordinates":{"lon":12.647601,"lat":55.62905},"time_zone":"Europe/Copenhagen","name_translations":{"en":"Kastrup","de":"Kopenhagen-Kastrup","zh-CN":"哥本哈根机场","ru":"","tr":"","it":"Kastrup Copenhagen","fr":"Kastrup Copenhagen","es":"Kastrup Copenhagen","th":"สนามบินโคเปนเฮเกน แคสตอร์ป"},"country_code":"DK","city_code":"CPH","cityName":"Copenhagen"},{"code":"CMB","name":"Bandaranaike International","coordinates":{"lon":79.8865,"lat":7.174112},"time_zone":"Asia/Colombo","name_translations":{"en":"Bandaranaike International","de":"Colombo Bandaranaike International","zh-CN":"班达拉纳亚克机场","ru":"","tr":"","it":"Bandaranayake Intl","fr":"Bandaranayake Intl","es":"Bandaranayake Intl","th":"สนามบินนานาชาติบันดารานายาเก"},"country_code":"LK","city_code":"CMB","cityName":"Colombo"},{"code":"MLE","name":"Malé International Airport","coordinates":{"lon":73.524445,"lat":4.201389},"time_zone":"Indian/Maldives","name_translations":{"de":"Male","en":"Malé International Airport","zh-CN":"马累机场","tr":null,"it":"Male","fr":"Male","es":"Male","th":"สนามบินมาเล"},"country_code":"MV","city_code":"MLE","cityName":"Male"},{"code":"COK","name":"Cochin International","coordinates":{"lon":76.39053,"lat":10.155644},"time_zone":"Asia/Kolkata","name_translations":{"de":"Cochin","en":"Cochin International","zh-CN":"库奇机场","tr":null,"it":"Kochi","fr":"Kochi","es":"Kochi","th":"สนามบินโคจิ"},"country_code":"IN","city_code":"COK","cityName":"Kochi"},{"code":"KHI","name":"Quaid-e-azam International","coordinates":{"lon":67.16828,"lat":24.899986},"time_zone":"Asia/Karachi","name_translations":{"de":"Karachi","en":"Quaid-e-azam International","zh-CN":"奎德阿扎姆机场","tr":"Quaid-E-Azam International","it":"Quaid-E-Azam Intl","fr":"Quaid-E-Azam Intl","es":"Quaid-E-Azam Intl","th":"สนามบินการาจี"},"country_code":"PK","city_code":"KHI","cityName":"Karachi"},{"code":"AUH","name":"Abu Dhabi International","coordinates":{"lon":54.645973,"lat":24.426912},"time_zone":"Asia/Dubai","name_translations":{"en":"Abu Dhabi International","de":"Abu Dhabi Internationale","zh-CN":"阿布扎比机场","ru":"Абу-Даби","tr":"","it":"Abu Dhabi Intl","fr":"Abu Dhabi Intl","es":"Abu Dhabi Intl","th":"สนามบินนานาชาติอาบูดาบี"},"country_code":"AE","city_code":"AUH","cityName":"Abu Dhabi"},{"code":"KMG","name":"Kunming","coordinates":{"lon":102.92917,"lat":25.101944},"time_zone":"Asia/Shanghai","name_translations":{"de":"Kunming","en":"Kunming","zh-CN":"昆明巫家坝机场","tr":"Kunming Airport","ru":"Кунминг","it":"Kunming Changshui","fr":"Kunming Changshui","es":"Kunming Changshui","th":"สนามบินคุนหมิง"},"country_code":"CN","city_code":"KMG","cityName":"Kunming"},{"code":"BKK","name":"Suvarnabhumi International","coordinates":{"lon":100.752045,"lat":13.693062},"time_zone":"Asia/Bangkok","name_translations":{"en":"Suvarnabhumi International","en-GB":"","en-AU":"","de":"Suvarnabhumi International","zh-CN":"曼谷机场","ru":"","tr":"","en-CA":"","en-NZ":"","en-IE":"","en-SG":"","en-IN":"","es":"Suvarnabhum","fr":"Suvarnabhumi","it":"Suvarnabhumi","th":"สนามบินนานาชาติสุวรรณภูมิ"},"country_code":"TH","city_code":"BKK","cityName":"Bangkok"},{"code":"DOH","name":"Doha International","coordinates":{"lon":51.558067,"lat":25.267569},"time_zone":"Asia/Qatar","name_translations":{"en":"Doha International","de":"Doha International","zh-CN":"多哈机场","ru":"Доха","tr":"","it":"Doha","fr":"Doha","es":"Doha","th":"สนามบินนานาชาติโดฮา"},"country_code":"QA","city_code":"DOH","cityName":"Doha"},{"code":"DMM","name":"King Fahd International Airport","coordinates":{"lon":49.79778,"lat":26.471111},"time_zone":"Asia/Riyadh","name_translations":{"de":"Dammam","en":"King Fahd International Airport","zh-CN":"法赫德国王机场","tr":null,"ru":"Дахран","it":"King Fahad Intl","fr":"King Fahad Intl","es":"King Fahad Intl","th":"สนามบินอัดดัมมาม"},"country_code":"SA","city_code":"DMM","cityName":"Dammam"},{"code":"RUH","name":"King Khaled International","coordinates":{"lon":46.702877,"lat":24.95929},"time_zone":"Asia/Riyadh","name_translations":{"de":"Riyadh","en":"King Khaled International","zh-CN":"利雅得机场","tr":null,"it":"King Khaled Intl","fr":"King Khaled Intl","es":"King Khaled Intl","th":"สนามบินริยาด"},"country_code":"SA","city_code":"RUH","cityName":"Riyadh"},{"code":"CAN","name":"Guangzhou Baiyun International","coordinates":{"lon":113.29734,"lat":23.387861},"time_zone":"Asia/Shanghai","name_translations":{"en":"Guangzhou Baiyun International","de":"Guangzhou Baiyun International","zh-CN":"广州白云机场","ru":"","tr":"","it":"Baiyun","fr":"Baiyun","es":"Baiyun","th":"สนามบินนานาชาติกวางโจวไป๋หยุน"},"country_code":"CN","city_code":"CAN","cityName":"Guangzhou"},{"code":"MAA","name":"Madras International (Meenambakkam)","coordinates":{"lon":80.16378,"lat":12.982267},"time_zone":"Asia/Kolkata","name_translations":{"en":"Madras International (Meenambakkam)","de":"Chennai International","zh-CN":"金奈机场","ru":"","tr":"","it":"Chennai","fr":"Chennai","es":"Chennai","th":"สนามบินนานาชาติเจนไน"},"country_code":"IN","city_code":"MAA","cityName":"Chennai"},{"code":"KWI","name":"Kuwait International","coordinates":{"lon":47.971252,"lat":29.240116},"time_zone":"Asia/Kuwait","name_translations":{"de":"Kuwait Intl","en":"Kuwait International","zh-CN":"科威特机场","tr":null,"it":"Kuwait","fr":"Kuwait","es":"Kuwait","th":"สนามบินคูเวตซิตี"},"country_code":"KW","city_code":"KWI","cityName":"Kuwait City"},{"code":"JED","name":"King Abdulaziz International","coordinates":{"lon":39.150578,"lat":21.670233},"time_zone":"Asia/Riyadh","name_translations":{"en":"King Abdulaziz International","de":"Jeddah King Abdulaziz International","zh-CN":"吉达机场","ru":"","tr":"","it":"King Abdulaziz Intl","fr":"King Abdulaziz Intl","es":"King Abdulaziz Intl","th":"สนามบินเจดดะห์"},"country_code":"SA","city_code":"JED","cityName":"Jeddah"},{"code":"NRT","name":"Narita International Airport","coordinates":{"lon":140.38744,"lat":35.773212},"time_zone":"Asia/Tokyo","name_translations":{"en":"Narita International Airport","de":"Tokio-Narita International","zh-CN":"东京成田机场","ru":"","tr":"Narita","it":"Narita","fr":"Narita","es":"Narita","th":"สนามบินนาริตะ"},"country_code":"JP","city_code":"TYO","cityName":"Tokyo"},{"code":"MCT","name":"Seeb","coordinates":{"lon":58.29022,"lat":23.588078},"time_zone":"Asia/Muscat","name_translations":{"de":"Muscat","en":"Seeb","zh-CN":"锡卜机场","tr":null,"it":"Seeb","fr":"Seeb","es":"Seeb","th":"สนามบินมัสกัต"},"country_code":"OM","city_code":"MCT","cityName":"Muscat"},{"code":"BAH","name":"Bahrain International","coordinates":{"lon":50.62605,"lat":26.26918},"time_zone":"Asia/Bahrain","name_translations":{"de":"Bahrain","en":"Bahrain International","zh-CN":"巴林机场","tr":null,"it":"Bahrain Intl","fr":"Bahrain Intl","es":"Bahrain Intl","th":"สนามบินบาห์เรน"},"country_code":"BH","city_code":"BAH","cityName":"Manama"},{"code":"DAC","name":"Zia International","coordinates":{"lon":90.405876,"lat":23.848648},"time_zone":"Asia/Dhaka","name_translations":{"de":"Dhaka","en":"Zia International","zh-CN":"达卡齐亚机场","tr":"Dhaka","it":"Zia International","fr":"Zia International","es":"Zia International","th":"สนามบินธากา"},"country_code":"BD","city_code":"DAC","cityName":"Dhaka"},{"code":"CGK","name":"Soekarno-Hatta International","coordinates":{"lon":106.655525,"lat":-6.130643},"time_zone":"Asia/Jakarta","name_translations":{"de":"Jakarta Soekarno-Hatta","en":"Soekarno-Hatta International","zh-CN":"雅加达机场","tr":"Soekarno–Hatta International Airport","it":"Soekarno-Hatta Intl","fr":"Soekarno-Hatta Intl","es":"Soekarno-Hatta Intl","th":"สนามบินนานาชาติซูการ์โนฮัตตา"},"country_code":"ID","city_code":"JKT","cityName":"Jakarta"},{"code":"LHE","name":"Alama Iqbal International","coordinates":{"lon":74.40278,"lat":31.520832},"time_zone":"Asia/Karachi","name_translations":{"de":"Lahore","en":"Alama Iqbal International","zh-CN":"拉合尔机场","tr":null,"it":"Lahore","fr":"Lahore","es":"Lahore","th":"สนามบินลาฮอร์"},"country_code":"PK","city_code":"LHE","cityName":"Lahore"},{"code":"GAY","name":"Gaya","coordinates":{"lon":84.94583,"lat":24.746668},"time_zone":"Asia/Kolkata","name_translations":{"de":"Gaya","en":"Gaya","zh-CN":"格雅机场","tr":"Gaya Airport","ru":"Гайя","it":"Gaya","fr":"Gaya","es":"Gaya","th":"สนามบินคยา"},"country_code":"IN","city_code":"GAY","cityName":"Gaya"},{"code":"SEZ","name":"Seychelles International Airport","coordinates":{"lon":55.51128,"lat":-4.671275},"time_zone":"Indian/Mahe","name_translations":{"de":"Mahe","en":"Seychelles International Airport","zh-CN":"塞舌尔机场","tr":null,"it":"Seychelles Intl","fr":"Seychelles Intl","es":"Seychelles Intl","th":"มาฮีไอแลนด์ / เกาะมาฮี"},"country_code":"SC","city_code":"SEZ","cityName":"Mahe Island"},{"code":"CCU","name":"Netaji Subhas Chandra","coordinates":{"lon":88.43931,"lat":22.64531},"time_zone":"Asia/Kolkata","name_translations":{"de":"Kalkutta","en":"Netaji Subhas Chandra","zh-CN":"加尔格达机场","tr":null,"it":"Netaji S. Chandra","fr":"Netaji S. Chandra","es":"Netaji S. Chandra","th":"สนามบินนานาชาติเนตาจิสุภาสจันทรโภส"},"country_code":"IN","city_code":"CCU","cityName":"Kolkata"},{"code":"ETH","name":"Eilat","coordinates":{"lon":34.95357,"lat":29.555616},"time_zone":"Asia/Jerusalem","name_translations":{"de":"Elat","en":"Eilat","tr":null,"ru":"Эйлат","it":"Elat","fr":"Elat","es":"Elat","th":"สนามบินไอลัต"},"country_code":"IL","city_code":"ETH","cityName":"Eilat"},{"code":"OTP","name":"Henri Coanda International","coordinates":{"lon":26.077063,"lat":44.571156},"time_zone":"Europe/Bucharest","name_translations":{"de":"Bukarest Otopeni","en":"Henri Coanda International","zh-CN":"亨利·科安德国际机场","tr":"Otopeni International","it":"Otopeni Intl","fr":"Otopeni Intl","es":"Otopeni Intl","th":"สนามบินนานาชาติบูคาเรสต์ เฮนรี โคอันดา"},"country_code":"RO","city_code":"BUH","cityName":"Bucharest"},{"code":"VAR","name":"Varna","coordinates":{"lon":27.829096,"lat":43.23726},"time_zone":"Europe/Sofia","name_translations":{"de":"Varna","en":"Varna","zh-CN":"瓦尔纳机场","tr":null,"ru":"Варна","it":"Varna","fr":"Varna","es":"Varna","th":"สนามบินวาร์นา"},"country_code":"BG","city_code":"VAR","cityName":"Varna"},{"code":"SDV","name":"Sde Dov","coordinates":{"lon":34.787857,"lat":32.104885},"time_zone":"Asia/Jerusalem","name_translations":{"de":"Tel Aviv Sde Dov","en":"Sde Dov","zh-CN":"特拉维夫雅法机场","tr":"Sde Dov","it":"Sde Dov","fr":"Sde Dov","es":"Sde Dov","th":"เทลอาวีฟ-ยาโฟ สเด ดอฟ"},"country_code":"IL","city_code":"TLV","cityName":"Tel Aviv Yafo"},{"code":"AMM","name":"Queen Alia International","coordinates":{"lon":35.98932,"lat":31.722534},"time_zone":"Asia/Amman","name_translations":{"en":"Queen Alia International","de":"Queen Alia International","zh-CN":"安曼女王机场","ru":"","tr":"Queen Alia International","it":"Queen Alia Intl","fr":"Queen Alia Intl","es":"Queen Alia Intl","th":"สนามบินนานาชาติควีนอาลียา"},"country_code":"JO","city_code":"AMM","cityName":"Amman"},{"code":"BCN","name":"El Prat De Llobregat","coordinates":{"lon":2.07593,"lat":41.30303},"time_zone":"Europe/Madrid","name_translations":{"de":"Barcelona El Prat","en":"El Prat De Llobregat","zh-CN":"巴塞罗那机场","tr":"Barcelona Int. Apt","it":"Barcelona","fr":"Barcelona","es":"Barcelona","th":"สนามบินบาร์เซโลนาเอลแปรต"},"country_code":"ES","city_code":"BCN","cityName":"Barcelona"},{"code":"KTW","name":"Pyrzowice","coordinates":{"lon":19.07403,"lat":50.470833},"time_zone":"Europe/Warsaw","name_translations":{"de":"Kattowitz","en":"Pyrzowice","zh-CN":"卡托维兹机场","tr":"Pyrzowice","it":"Pyrzowice","fr":"Pyrzowice","es":"Pyrzowice","th":"สนามบินคาโตวีตเซ เพียร์โซวิเซ"},"country_code":"PL","city_code":"KTW","cityName":"Katowice"},{"code":"BOS","name":"Logan International","coordinates":{"lon":-71.02018,"lat":42.36646},"time_zone":"America/New_York","name_translations":{"en":"Logan International","de":"Edward Lawrence Logan International","zh-CN":"波斯顿洛根机场","ru":"","tr":"","it":"Logan International","fr":"Logan International","es":"Logan International","th":"สนามบินโลแกน"},"country_code":"US","city_code":"BOS","cityName":"Boston"},{"code":"YYZ","name":"Lester B. Pearson International","coordinates":{"lon":-79.61146,"lat":43.681583},"time_zone":"America/Toronto","name_translations":{"en":"Lester B. Pearson International","de":"Toronto Pearson International","zh-CN":"莱斯特佩尔逊机场","ru":"","tr":"Pearson Int. Apt.","it":"Pearson Intl","fr":"Pearson Intl","es":"Pearson Intl","th":"สนามบินนานาชาติโตรอนโตเพียร์สัน"},"country_code":"CA","city_code":"YTO","cityName":"Toronto"},{"code":"LTN","name":"Luton Airport","coordinates":{"lon":-0.376232,"lat":51.87977},"time_zone":"Europe/London","name_translations":{"de":"London Luton","en":"Luton Airport","zh-CN":"卢顿机场","tr":"Luton","it":"Luton Airport","fr":"Luton Airport","es":"Luton Airport","th":"สนามบินลอนดอนลูตัน"},"country_code":"GB","city_code":"LON","cityName":"London"},{"code":"EWR","name":"Newark Liberty International","coordinates":{"lon":-74.17876,"lat":40.68907},"time_zone":"America/New_York","name_translations":{"en":"Newark Liberty International","de":"Newark Liberty International","zh-CN":"纽沃克机场","ru":"","tr":"Newark","it":"Newark","fr":"Newark","es":"Newark","th":"สนามบินนวร์ก"},"country_code":"US","city_code":"NYC","cityName":"New York"},{"code":"LAX","name":"Los Angeles International","coordinates":{"lon":-118.40828,"lat":33.943398},"time_zone":"America/Los_Angeles","name_translations":{"en":"Los Angeles International","de":"Los Angeles International","zh-CN":"洛杉矶机场","ru":"","tr":"","it":"Los Angeles","fr":"Los Angeles","es":"Los Angeles","th":"สนามบินนานาชาติลอสแอนเจลิส"},"country_code":"US","city_code":"LAX","cityName":"Los Angeles"},{"code":"MUC","name":"Franz Josef Strauss","coordinates":{"lon":11.790143,"lat":48.353004},"time_zone":"Europe/Berlin","name_translations":{"en":"Franz Josef Strauss","de":"Franz Josef Strauß","zh-CN":"慕尼黑雷姆机场","ru":"","tr":"Franz Josef Strauss","it":"Monaco di Baviera","fr":"Franz Josef Strauss","es":"Franz Josef Strauss","th":"สนามบินมิวนิก"},"country_code":"DE","city_code":"MUC","cityName":"Munich"},{"code":"MAD","name":"Barajas","coordinates":{"lon":-3.570209,"lat":40.46515},"time_zone":"Europe/Madrid","name_translations":{"de":"Madrid","en":"Barajas","zh-CN":"巴拉哈斯机场","tr":"Madrid-Barajas","it":"Barajas","fr":"Barajas","es":"Barajas","th":"สนามบินมาดริด-บาราคาส"},"country_code":"ES","city_code":"MAD","cityName":"Madrid"},{"code":"VCE","name":"Marco Polo","coordinates":{"lon":12.337947,"lat":45.502285},"time_zone":"Europe/Rome","name_translations":{"de":"Venedig M.P.","en":"Marco Polo","zh-CN":"马可波罗机场","tr":"Marco Polo","it":"Aeroporto Marco Polo","fr":"Marco Polo","es":"Marco Polo","th":"สนามบินเวนิส"},"country_code":"IT","city_code":"VCE","cityName":"Venice"},{"code":"MRS","name":"Marseille Provence Airport","coordinates":{"lon":5.222137,"lat":43.44178},"time_zone":"Europe/Paris","name_translations":{"de":"Marseille","en":"Marseille Provence Airport","zh-CN":"马赛机场","tr":"Marseille Provence Apt.","it":"Marseille","fr":"Marseille","es":"Marseille","th":"สนามบินมาร์กเซโพรวองซ์"},"country_code":"FR","city_code":"MRS","cityName":"Marseille"},{"code":"BRU","name":"Brussels Airport","coordinates":{"lon":4.483602,"lat":50.89717},"time_zone":"Europe/Brussels","name_translations":{"en":"Brussels Airport","de":"Brüssel-Zaventem","zh-CN":"布鲁塞尔国家机场","ru":"Аэропорт Брюсселя","tr":"National","it":"National","fr":"National","es":"National","th":"สนามบินบรัสเซลส์"},"country_code":"BE","city_code":"BRU","cityName":"Brussels"},{"code":"GVA","name":"Geneve-cointrin","coordinates":{"lon":6.105774,"lat":46.229633},"time_zone":"Europe/Zurich","name_translations":{"de":"Genf","en":"Geneve-cointrin","zh-CN":"柯英特林机场","tr":"Cointrin Int. Apt","it":"Geneve-Cointrin","fr":"Geneve-Cointrin","es":"Geneve-Cointrin","th":"สนามบินนานาชาติเจนีวา"},"country_code":"CH","city_code":"GVA","cityName":"Geneva"},{"code":"SOF","name":"Sofia","coordinates":{"lon":23.41443,"lat":42.688343},"time_zone":"Europe/Sofia","name_translations":{"de":"Sofia","en":"Sofia","zh-CN":"索非亚机场","tr":null,"ru":"София","it":"Sofia","fr":"Sofia","es":"Sofia","th":"สนามบินโซเฟีย"},"country_code":"BG","city_code":"SOF","cityName":"Sofia"},{"code":"WAW","name":"Frederic Chopin","coordinates":{"lon":20.97329,"lat":52.170906},"time_zone":"Europe/Warsaw","name_translations":{"en":"Frederic Chopin","de":"Chopin-Flughafen Warschau","zh-CN":"华沙机场","ru":"","tr":"Chopin Airport","it":"Frederic Chopin & other airports","fr":"Frederic Chopin & other airports","es":"Frederic Chopin & other airports","th":"สนามบินวอร์ซอโคปิง"},"country_code":"PL","city_code":"WAW","cityName":"Warsaw"},{"code":"NCE","name":"Cote D'azur International Airport","coordinates":{"lon":7.205232,"lat":43.66049},"time_zone":"Europe/Paris","name_translations":{"de":"Nizza","en":"Cote D'azur International Airport","zh-CN":"尼斯机场","tr":"Cote d'Azur Int. Apt.","it":"Cote D'Azur","fr":"Côte d'Azur","es":"Cote D'Azur","th":"สนามบินนีซ"},"country_code":"FR","city_code":"NCE","cityName":"Nice"},{"code":"ZAG","name":"Pleso","coordinates":{"lon":16.06152,"lat":45.733242},"time_zone":"Europe/Zagreb","name_translations":{"de":"Zagreb","en":"Pleso","zh-CN":"萨格勒布机场","tr":"Pleso Int. Apt","it":"Pleso","fr":"Pleso","es":"Pleso","th":"สนามบินเพลโซ"},"country_code":"HR","city_code":"ZAG","cityName":"Zagreb"},{"code":"VDA","name":"Ovda","coordinates":{"lon":34.9339,"lat":29.952015},"time_zone":"Asia/Jerusalem","name_translations":{"de":"Ovda","en":"Ovda","tr":null,"it":"Ovda","fr":"Ovda","es":"Ovda","th":"สนามบินออฟดา"},"country_code":"IL","city_code":"VDA","cityName":"Ovda"},{"code":"BUD","name":"Liszt Ferenc International","coordinates":{"lon":19.261621,"lat":47.433037},"time_zone":"Europe/Budapest","name_translations":{"en":"Liszt Ferenc International","de":"Budapest Liszt Ferenc","zh-CN":"布达佩斯机场","ru":"","tr":"Ferihegy Int. Apt.","it":"Ferihegy","fr":"Ferihegy","es":"Ferihegy","th":"สนามบินบูดาเปสต์ลิสต์เฟเรงก์"},"country_code":"HU","city_code":"BUD","cityName":"Budapest"},{"code":"SXF","name":"Berlin-Schoenefeld","coordinates":{"lon":13.521388,"lat":52.370277},"time_zone":"Europe/Berlin","name_translations":{"de":"Berlin Schönefeld","en":"Berlin-Schoenefeld","zh-CN":"舍内菲尔德机场","tr":"Schoenefeld","it":"Schönefeld","fr":"Schönefeld","es":"Schönefeld","th":"สนามบินเบอร์ลินชูเนเฟลด์"},"country_code":"DE","city_code":"BER","cityName":"Berlin"},{"code":"LCA","name":"Larnaca","coordinates":{"lon":33.62599,"lat":34.880867},"time_zone":"Asia/Nicosia","name_translations":{"de":"Larnaca","en":"Larnaca","zh-CN":"拉纳卡","tr":null,"it":"Larnaca","fr":"Larnaca","es":"Larnaca","th":"สนามบินนานาชาติลาร์นาคา"},"country_code":"CY","city_code":"LCA","cityName":"Larnaca"},{"code":"NAP","name":"Capodichino","coordinates":{"lon":14.291667,"lat":40.886112},"time_zone":"Europe/Rome","name_translations":{"de":"Neapel","en":"Capodichino","zh-CN":"那不勒斯机场","tr":"Capodichino Apt.","it":"Aeroporto internazionale di Napoli","fr":"Naples","es":"Naples","th":"สนามบินนานาชาติเนเปิลส์"},"country_code":"IT","city_code":"NAP","cityName":"Napoli"},{"code":"LGG","name":"Liege Airport","coordinates":{"lon":5.460149,"lat":50.643333},"time_zone":"Europe/Brussels","name_translations":{"de":"Liege","en":"Liege Airport","zh-CN":"列日机场","tr":null,"it":"Bierset","fr":"Bierset","es":"Bierset","th":"สนามบินลีเชอะ"},"country_code":"BE","city_code":"LGG","cityName":"Liege"},{"code":"HER","name":"Nikos Kazantzakis Airport","coordinates":{"lon":25.174192,"lat":35.33663},"time_zone":"Europe/Athens","name_translations":{"de":"Heraklion","en":"Nikos Kazantzakis Airport","zh-CN":"赫拉克利翁","tr":"Nikos Kazantzakis Airport","it":"N. Kazantzakis Apt.","fr":"N. Kazantzakis Apt.","es":"N. Kazantzakis Apt.","th":"สนามบินนานาชาติเฮราคลิออน"},"country_code":"GR","city_code":"HER","cityName":"Heraklion"},{"code":"BEN","name":"Benina International","coordinates":{"lon":20.26489,"lat":32.085423},"time_zone":"Africa/Tripoli","name_translations":{"de":"Benghazi","en":"Benina International","zh-CN":"班加西机场","tr":null,"it":"Benina Intl","fr":"Benina Intl","es":"Benina Intl","th":"สนามบินเบงกาซี"},"country_code":"LY","city_code":"BEN","cityName":"Benghazi"},{"code":"LAQ","name":"La Braq","coordinates":{"lon":21.964167,"lat":32.788612},"time_zone":"Africa/Tripoli","name_translations":{"de":"La Braq","en":"La Braq","zh-CN":"贝达机场","tr":"La Braq","it":"La Braq","fr":"La Braq","es":"La Braq","th":"สนามบินเบด้า"},"country_code":"LY","city_code":"LAQ","cityName":"Beida"},{"code":"TUN","name":"Carthage","coordinates":{"lon":10.21709,"lat":36.847622},"time_zone":"Africa/Tunis","name_translations":{"de":"Tunis","en":"Carthage","zh-CN":"迦太基机场","tr":null,"it":"Carthage","fr":"Carthage","es":"Carthage","th":"สนามบินคาร์เธจ"},"country_code":"TN","city_code":"TUN","cityName":"Tunis"},{"code":"TIP","name":"International","coordinates":{"lon":13.144279,"lat":32.66989},"time_zone":"Africa/Tripoli","name_translations":{"de":"Tripolis","en":"International","zh-CN":"的黎波里机场","tr":null,"it":"Tripoli","fr":"Tripoli","es":"Tripoli","th":"สนามบินตริโปลี"},"country_code":"LY","city_code":"TIP","cityName":"Tripoli"},{"code":"GHT","name":"Ghat","coordinates":{"lon":10.166667,"lat":24.966667},"time_zone":"Africa/Tripoli","name_translations":{"de":"Ghat","en":"Ghat","zh-CN":"加特机场","tr":null,"ru":"Гат","it":"Ghat","fr":"Ghat","es":"Ghat","th":"สนามบินแก็ท"},"country_code":"LY","city_code":"GHT","cityName":"Ghat"},{"code":"SCL","name":"Arturo Merino Benitez","coordinates":{"lon":-70.79382,"lat":-33.397175},"time_zone":"America/Santiago","name_translations":{"de":"Santiago de Chile","en":"Arturo Merino Benitez","zh-CN":"贝尼特斯机场","tr":null,"it":"Arturo M. Benitez","fr":"Arturo M. Benitez","es":"Arturo M. Benitez","th":"สนามบินนานาชาติซานติอาโก"},"country_code":"CL","city_code":"SCL","cityName":"Santiago"},{"code":"ALG","name":"Houari Boumediene","coordinates":{"lon":3.21167,"lat":36.70058},"time_zone":"Africa/Algiers","name_translations":{"de":"Algiers","en":"Houari Boumediene","zh-CN":"阿尔及尔机场","tr":null,"it":"Houari Boumediene","fr":"Houari Boumediene","es":"Houari Boumediene","th":"สนามบินแอลเจียร์"},"country_code":"DZ","city_code":"ALG","cityName":"Algiers"},{"code":"SFA","name":"Sfax Thyna","coordinates":{"lon":10.683333,"lat":34.716667},"time_zone":"Africa/Tunis","name_translations":{"de":"Sfax","en":"Sfax Thyna","zh-CN":"斯法克斯机场","tr":null,"it":"Sfax El Maou","fr":"Sfax El Maou","es":"Sfax El Maou","th":"สนามบินซแฟกส์เอลมาอู"},"country_code":"TN","city_code":"SFA","cityName":"Sfax"},{"code":"TOB","name":"Tobruk","coordinates":{"lon":23.917221,"lat":31.854168},"time_zone":"Africa/Tripoli","name_translations":{"en":"Tobruk","zh-CN":"图卜鲁克机场","tr":null,"ru":"Тобрук","it":"Tobruk","fr":"Tobruk","es":"Tobruk","th":"สนามบินโทบรัค"},"country_code":"LY","city_code":"TOB","cityName":"Tobruk"},{"code":"DAR","name":"Dar Es Salam International Airport","coordinates":{"lon":39.20211,"lat":-6.873533},"time_zone":"Africa/Dar_es_Salaam","name_translations":{"de":"Dar Es Salaam","en":"Dar Es Salam International Airport","zh-CN":"达累斯萨拉姆机场","tr":null,"it":"Dar Es Salaam","fr":"Dar Es Salaam","es":"Dar Es Salaam","th":"สนามบินดาร์-เอส-ซาลาม"},"country_code":"TZ","city_code":"DAR","cityName":"Dar Es Salaam"},{"code":"MWZ","name":"Mwanza","coordinates":{"lon":32.923225,"lat":-2.441221},"time_zone":"Africa/Dar_es_Salaam","name_translations":{"de":"Mwanza","en":"Mwanza","zh-CN":"姆万扎机场","tr":null,"ru":"Мванза","it":"Mwanza","fr":"Mwanza","es":"Mwanza","th":"สนามบินมวันซา"},"country_code":"TZ","city_code":"MWZ","cityName":"Mwanza"},{"code":"JRO","name":"Kilimanjaro","coordinates":{"lon":37.065342,"lat":-3.424123},"time_zone":"Africa/Dar_es_Salaam","name_translations":{"de":"Kilimanjaro","en":"Kilimanjaro","zh-CN":"乞力马扎罗","tr":null,"ru":"Килиманджаро","it":"Kilimanjaro","fr":"Kilimanjaro","es":"Kilimanjaro","th":"สนามบินคิลิมันจาโร"},"country_code":"TZ","city_code":"JRO","cityName":"Kilimanjaro"},{"code":"ARK","name":"Arusha","coordinates":{"lon":36.683334,"lat":-3.366667},"time_zone":"Africa/Dar_es_Salaam","name_translations":{"de":"Arusha","en":"Arusha","zh-CN":"阿鲁沙机场","tr":null,"ru":"Аруша","it":"Arusha","fr":"Arusha","es":"Arusha","th":"สนามบินอะรูชา"},"country_code":"TZ","city_code":"ARK","cityName":"Arusha"},{"code":"BKZ","name":"Bukoba","coordinates":{"lon":31.8,"lat":-1.3},"time_zone":"Africa/Dar_es_Salaam","name_translations":{"de":"Bukoba","en":"Bukoba","zh-CN":"布科巴机场","tr":null,"ru":"Букоба","it":"Bukoba","fr":"Bukoba","es":"Bukoba","th":"สนามบินบูโคบา"},"country_code":"TZ","city_code":"BKZ","cityName":"Bukoba"},{"code":"PHC","name":"Port Harcourt","coordinates":{"lon":6.9499,"lat":5.006506},"time_zone":"Africa/Lagos","name_translations":{"de":"Port Harcourt","en":"Port Harcourt","zh-CN":"哈科特港机场","tr":null,"it":"Port Harcourt","fr":"Port Harcourt","es":"Port Harcourt","th":"สนามบินพอร์ตฮาร์คอร์ต"},"country_code":"NG","city_code":"PHC","cityName":"Port Harcourt"},{"code":"LOS","name":"Murtala Muhammed","coordinates":{"lon":3.321178,"lat":6.577871},"time_zone":"Africa/Lagos","name_translations":{"de":"Lagos","en":"Murtala Muhammed","zh-CN":"拉各斯机场","tr":null,"it":"Murtala Muhammed","fr":"Murtala Muhammed","es":"Murtala Muhammed","th":"สนามบินเลกอส"},"country_code":"NG","city_code":"LOS","cityName":"Lagos"},{"code":"LAD","name":"4 de Fevereiro","coordinates":{"lon":13.234862,"lat":-8.847951},"time_zone":"Africa/Luanda","name_translations":{"de":"Luanda","en":"4 de Fevereiro","zh-CN":"罗安达机场","tr":null,"it":"4 de Fevereiro","fr":"4 de Fevereiro","es":"4 de Fevereiro","th":"สนามบินลูอันดา"},"country_code":"AO","city_code":"LAD","cityName":"Luanda"},{"code":"NKC","name":"Nouakchott","coordinates":{"lon":-15.952041,"lat":18.098148},"time_zone":"Africa/Nouakchott","name_translations":{"de":"Nouakchott","en":"Nouakchott","tr":null,"ru":"Нуакшот","it":"Nouakchott","fr":"Nouakchott","es":"Nouakchott","th":"สนามบินนูแอกชอต"},"country_code":"MR","city_code":"NKC","cityName":"Nouakchott"},{"code":"CKY","name":"Conakry","coordinates":{"lon":-13.62017,"lat":9.575655},"time_zone":"Africa/Conakry","name_translations":{"de":"Conakry","en":"Conakry","zh-CN":"科纳克里机场","tr":null,"it":"Conakry","fr":"Conakry","es":"Conakry","th":"สนามบินโกนากรี"},"country_code":"GN","city_code":"CKY","cityName":"Conakry"},{"code":"CMN","name":"Mohamed V","coordinates":{"lon":-7.586667,"lat":33.36667},"time_zone":"Africa/Casablanca","name_translations":{"de":"Casablanca","en":"Mohamed V","zh-CN":"穆罕默德五世机场","tr":"Mohamed V","it":"Mohamed V","fr":"Mohamed V","es":"Mohamed V","th":"มุฮัมมัด ฟิฟท์ อินเตอร์เนชั่นแนล"},"country_code":"MA","city_code":"CAS","cityName":"Casablanca"},{"code":"LPA","name":"Gran Canaria","coordinates":{"lon":-15.389351,"lat":27.938944},"time_zone":"Atlantic/Canary","name_translations":{"de":"Las Palmas","en":"Gran Canaria","zh-CN":"拉斯帕尔马斯机场","tr":"Gran Canaria Int. Apt","it":"Gran Canaria Airport","fr":"Gran Canaria Airport","es":"Gran Canaria","th":"สนามบินกรานคานาเรีย"},"country_code":"ES","city_code":"LPA","cityName":"Las Palmas"},{"code":"DKR","name":"Dakar-Yoff-Léopold Sédar Senghor International","coordinates":{"lon":-17.490194,"lat":14.744975},"time_zone":"Africa/Dakar","name_translations":{"de":"Dakar","en":"Dakar-Yoff-Léopold Sédar Senghor International","zh-CN":"达喀尔约夫机场","tr":null,"it":"Yoff","fr":"Yoff","es":"Yoff","th":"สนามบินดาการ์"},"country_code":"SN","city_code":"DKR","cityName":"Dakar"},{"code":"MBA","name":"Moi International","coordinates":{"lon":39.60325,"lat":-4.0327},"time_zone":"Africa/Nairobi","name_translations":{"de":"Mombasa","en":"Moi International","zh-CN":"蒙巴萨机场","tr":null,"it":"Moi International","fr":"Moi International","es":"Moi International","th":"สนามบินมอมบาซา"},"country_code":"KE","city_code":"MBA","cityName":"Mombasa"},{"code":"SAH","name":"El Rahaba Airport (Sanaa Intenational)","coordinates":{"lon":44.22511,"lat":15.473598},"time_zone":"Asia/Aden","name_translations":{"de":"Sanaa","en":"El Rahaba Airport (Sanaa Intenational)","zh-CN":"萨那机场","tr":null,"ru":"Рауда","it":"Sana'a International","fr":"Sana'a International","es":"Sana'a International","th":"สนามบินซานา"},"country_code":"YE","city_code":"SAH","cityName":"Sanaa"},{"code":"CAI","name":"Cairo International Airport","coordinates":{"lon":31.40647,"lat":30.120106},"time_zone":"Africa/Cairo","name_translations":{"de":"Kairo","en":"Cairo International Airport","zh-CN":"开罗机场","tr":null,"it":"Aeroporto Internazionale del Cairo","fr":"Aéroport international du Caire","es":"Aeropuerto Internacional de El Cairo","th":"สนามบินนานาชาติไคโร"},"country_code":"EG","city_code":"CAI","cityName":"Cairo"},{"code":"KRT","name":"Civil","coordinates":{"lon":32.549698,"lat":15.592217},"time_zone":"Africa/Khartoum","name_translations":{"de":"Khartoum","en":"Civil","zh-CN":"喀土穆机场","tr":"Civil Airport","th":"สนามบินคาร์ทูม"},"country_code":"SD","city_code":"KRT","cityName":"Khartoum"},{"code":"LYS","name":"St-Exupéry","coordinates":{"lon":5.080334,"lat":45.721424},"time_zone":"Europe/Paris","name_translations":{"de":"Lyon","en":"St-Exupéry","zh-CN":"里昂机场","tr":"Satolas","it":"Lyon-Saint Exupéry","fr":"Lyon-Saint Exupéry","es":"Lyon-Saint Exupéry","th":"สนามบินลียองแซงต์แอ็กซูพี"},"country_code":"FR","city_code":"LYS","cityName":"Lyon"},{"code":"SXB","name":"Entzheim","coordinates":{"lon":7.627674,"lat":48.544876},"time_zone":"Europe/Paris","name_translations":{"de":"Strassburg","en":"Entzheim","zh-CN":"斯特拉斯堡机场","tr":"Entzheim","it":"Entzheim","fr":"Entzheim","es":"Entzheim","th":"สนามบินสตาร์สบูร์กฮันไซม์"},"country_code":"FR","city_code":"SXB","cityName":"Strasbourg"},{"code":"CZL","name":"Ain El Bey","coordinates":{"lon":6.618425,"lat":36.286476},"time_zone":"Africa/Algiers","name_translations":{"de":"Constantine","en":"Ain El Bey","zh-CN":"康斯坦丁机场","tr":null,"it":"Ain El Bey","fr":"Ain El Bey","es":"Ain El Bey","th":"สนามบินคอนสแตนติน"},"country_code":"DZ","city_code":"CZL","cityName":"Constantine"},{"code":"ORN","name":"Es Senia","coordinates":{"lon":-0.606108,"lat":35.620018},"time_zone":"Africa/Algiers","name_translations":{"de":"Oran Algerien","en":"Es Senia","tr":null,"it":"Es Senia","fr":"Es Senia","es":"Es Senia","th":"สนามบินออราน"},"country_code":"DZ","city_code":"ORN","cityName":"Oran"},{"code":"YUL","name":"Pierre Elliott Trudeau International","coordinates":{"lon":-73.74991,"lat":45.457714},"time_zone":"America/Montreal","name_translations":{"de":"Montreal Pierre Elliott Trudeau","en":"Pierre Elliott Trudeau International","zh-CN":"皮埃尔机场","tr":"Dorval","it":"Elliott Trudeau","fr":"Elliott Trudeau","es":"Elliott Trudeau","th":"สนามบินนานาชาติมอนทรีอัล-ปิแอร์เอลเลียตทรูโด"},"country_code":"CA","city_code":"YMQ","cityName":"Montreal"},{"code":"LIL","name":"Lesquin","coordinates":{"lon":3.106067,"lat":50.57205},"time_zone":"Europe/Paris","name_translations":{"de":"Lille","en":"Lesquin","zh-CN":"里尔机场","tr":"Lesquin","it":"Lesquin","fr":"Lesquin","es":"Lesquin","th":"สนามบินลีเล-ลีเกียง"},"country_code":"FR","city_code":"LIL","cityName":"Lille"},{"code":"BEY","name":"Beirut Rafic Hariri Airport","coordinates":{"lon":35.49308,"lat":33.826073},"time_zone":"Asia/Beirut","name_translations":{"en":"Beirut Rafic Hariri Airport","de":"Rafiq-Hariri-Flughafen","zh-CN":"贝鲁特机场","ru":"","tr":"","it":"Beirut","fr":"Beirut","es":"Beirut","th":"สนามบินเบรุต"},"country_code":"LB","city_code":"BEY","cityName":"Beirut"},{"code":"ETZ","name":"Metz-nancy-lorraine","coordinates":{"lon":6.243003,"lat":48.98165},"time_zone":"Europe/Paris","name_translations":{"de":"Metz Nancy Lorraine","en":"Metz-nancy-lorraine","zh-CN":"南锡梅兹机场","tr":"Metz-nancy-lorraine","it":"Metz-Nancy-Lorraine","fr":"Metz-Nancy-Lorraine","es":"Metz-Nancy-Lorraine","th":"สนามบินเมตซ์"},"country_code":"FR","city_code":"ETZ","cityName":"Metz"},{"code":"QSF","name":"Setif","coordinates":{"lon":5.331111,"lat":36.18139},"time_zone":"Africa/Algiers","name_translations":{"de":"Setif","en":"Setif","zh-CN":"塞堤夫机场","tr":null,"it":"Setif","fr":"Setif","es":"Setif","th":"สนามบินเซติฟ"},"country_code":"DZ","city_code":"QSF","cityName":"Sétif"},{"code":"TLS","name":"Blagnac","coordinates":{"lon":1.374321,"lat":43.63007},"time_zone":"Europe/Paris","name_translations":{"de":"Toulouse","en":"Blagnac","zh-CN":"图卢兹机场","tr":"Toulouse Blagnac Int. Apt","it":"Blagnac","fr":"Blagnac","es":"Blagnac","th":"สนามบินตูลูซบลานยัค"},"country_code":"FR","city_code":"TLS","cityName":"Toulouse"},{"code":"ABJ","name":"Felix Houphouet Boigny","coordinates":{"lon":-3.933015,"lat":5.254879},"time_zone":"Africa/Abidjan","name_translations":{"de":"Abidjan","en":"Felix Houphouet Boigny","zh-CN":"阿比让机场","tr":null,"it":"Felix H. Boigny","fr":"Felix H. Boigny","es":"Felix H. Boigny","th":"สนามบินอาบีจาน"},"country_code":"CI","city_code":"ABJ","cityName":"Abidjan"},{"code":"TIN","name":"Tindouf","coordinates":{"lon":-8.166667,"lat":27.716667},"time_zone":"Africa/Algiers","name_translations":{"en":"Tindouf","zh-CN":"廷杜夫机场","tr":null,"ru":"Тиндуф","it":"Tindouf","fr":"Tindouf","es":"Tindouf","th":"สนามบินทินดอฟ"},"country_code":"DZ","city_code":"TIN","cityName":"Tindouf"},{"code":"HME","name":"Oued Irara Airport","coordinates":{"lon":6.145436,"lat":31.675303},"time_zone":"Africa/Algiers","name_translations":{"de":"Hassi Messaoud","en":"Oued Irara Airport","zh-CN":"哈西迈萨乌德机场","tr":null,"it":"Oued Irara Apt","fr":"Oued Irara Apt","es":"Oued Irara Apt","th":"สนามบินฮาสซีเมสเซาด์"},"country_code":"DZ","city_code":"HME","cityName":"Hassi Messaoud"},{"code":"BSK","name":"Mohamed Boudiaf","coordinates":{"lon":5.738056,"lat":34.79333},"time_zone":"Africa/Algiers","name_translations":{"de":"Biskra","en":"Mohamed Boudiaf","zh-CN":"比斯克拉机场","tr":null,"ru":"Бискра","it":"Biskra","fr":"Biskra","es":"Biskra","th":"สนามบินบิสครา"},"country_code":"DZ","city_code":"BSK","cityName":"Biskra"},{"code":"BJA","name":"Bejaia","coordinates":{"lon":5.083333,"lat":36.75},"time_zone":"Africa/Algiers","name_translations":{"de":"Bejaia","en":"Bejaia","zh-CN":"贝贾亚机场","tr":null,"it":"Bejaia","fr":"Bejaia","es":"Bejaia","th":"สนามบินเบอจายา"},"country_code":"DZ","city_code":"BJA","cityName":"Bejaia"},{"code":"MLH","name":"Euroairport France","coordinates":{"lon":7.532864,"lat":47.599323},"time_zone":"Europe/Zurich","name_translations":{"de":"Mulhouse","en":"Euroairport France","zh-CN":"米卢斯机场","tr":null,"it":"Mulhouse EuroAirport","fr":"Mulhouse EuroAirport","es":"Mulhouse EuroAirport","th":"สนามบินมัลเฮาส์"},"country_code":"CH","city_code":"EAP","cityName":"Mulhouse"},{"code":"BLJ","name":"Batna","coordinates":{"lon":6.183333,"lat":35.566666},"time_zone":"Africa/Algiers","name_translations":{"de":"Batna","en":"Batna","zh-CN":"巴特纳机场","tr":null,"ru":"Батна","it":"Batna","fr":"Batna","es":"Batna","th":"สนามบินแบทนา"},"country_code":"DZ","city_code":"BLJ","cityName":"Batna"},{"code":"TLM","name":"Zenata","coordinates":{"lon":-1.45,"lat":35.016666},"time_zone":"Africa/Algiers","name_translations":{"de":"Tlemcen","en":"Zenata","zh-CN":"特莱姆森机场","tr":null,"it":"Zenata","fr":"Zenata","es":"Zenata","th":"สนามบินตเลมเซน"},"country_code":"DZ","city_code":"TLM","cityName":"Tlemcen"},{"code":"AZR","name":"Adrar","coordinates":{"lon":-0.283333,"lat":27.883333},"time_zone":"Africa/Algiers","name_translations":{"de":null,"en":"Adrar","zh-CN":"阿德拉尔机场","tr":null,"ru":"Адрар","it":"Adrar","fr":"Adrar","es":"Adrar","th":"สนามบินอาดราร์"},"country_code":"DZ","city_code":"AZR","cityName":"Adrar"},{"code":"BOD","name":"Mérignac","coordinates":{"lon":-0.70217,"lat":44.83102},"time_zone":"Europe/Paris","name_translations":{"de":"Bordeaux","en":"Mérignac","zh-CN":"波尔多机场","tr":null,"it":"Bordeaux Airport","fr":"Bordeaux Airport","es":"Bordeaux Airport","th":"สนามบินบอร์กโดซ์-เมรินยัค"},"country_code":"FR","city_code":"BOD","cityName":"Bordeaux"},{"code":"ALC","name":"Alicante El Altet","coordinates":{"lon":-0.557381,"lat":38.287098},"time_zone":"Europe/Madrid","name_translations":{"de":"Alicante","en":"Alicante El Altet","zh-CN":"阿利坎特机场","tr":"El Altet Apt","it":"Alicante","fr":"Alicante","es":"Alicante","th":"สนามบินอลิกานเต"},"country_code":"ES","city_code":"ALC","cityName":"Alicante"},{"code":"LIS","name":"Lisbon Portela","coordinates":{"lon":-9.128165,"lat":38.770042},"time_zone":"Europe/Lisbon","name_translations":{"en":"Lisbon Portela","de":"Lissabon-Portela","zh-CN":"波泰拉机场","ru":"","tr":"Lisboa Int. Apt","it":"Lisboa","fr":"Lisboa","es":"Lisboa","th":"สนามบินลิสบอนพอร์เทลา"},"country_code":"PT","city_code":"LIS","cityName":"Lisbon"},{"code":"AAE","name":"Les Salines","coordinates":{"lon":7.811857,"lat":36.821392},"time_zone":"Africa/Algiers","name_translations":{"de":"Annaba","en":"Les Salines","zh-CN":"安纳巴机场","tr":null,"it":"Les Salines","fr":"Les Salines","es":"Les Salines","th":"สนามบินแอนนาบา"},"country_code":"DZ","city_code":"AAE","cityName":"Annaba"},{"code":"CBH","name":"Leger","coordinates":{"lon":-2.259722,"lat":31.647778},"time_zone":"Africa/Algiers","name_translations":{"de":"Leger","en":"Leger","zh-CN":"贝沙尔","tr":null,"it":"Leger","fr":"Leger","es":"Leger","th":"สนามบินเบชาร์"},"country_code":"DZ","city_code":"CBH","cityName":"Béchar"},{"code":"CFK","name":"Aboubakr Belkaid","coordinates":{"lon":1.331667,"lat":36.212223},"time_zone":"Africa/Algiers","name_translations":{"de":"Chlef","en":"Aboubakr Belkaid","tr":"Chlef Ululararası Havalimanı","it":"Chlef","fr":"Chlef","es":"Chlef","th":"สนามบินชเลฟ","ru":"Аэропорт Шлеф"},"country_code":"DZ","city_code":"CFK","cityName":"Chlef"},{"code":"IAM","name":"In Amenas","coordinates":{"lon":9.638056,"lat":28.051111},"time_zone":"Africa/Algiers","name_translations":{"de":null,"en":"In Amenas","zh-CN":"英纳梅那斯机场","tr":null,"it":"In Amenas","fr":"In Amenas","es":"In Amenas","th":"สนามบินอินเอมีนาส"},"country_code":"DZ","city_code":"IAM","cityName":"In Amenas"},{"code":"TMR","name":"Aguemar","coordinates":{"lon":5.459167,"lat":22.814722},"time_zone":"Africa/Algiers","name_translations":{"de":"Aguemar","en":"Aguemar","zh-CN":"塔曼拉塞特机场","tr":null,"it":"Aguemar","fr":"Aguemar","es":"Aguemar","th":"สนามบินทาแมนราสเซ็ท"},"country_code":"DZ","city_code":"TMR","cityName":"Tamanrasset"},{"code":"SVO","name":"Sheremetyevo International","coordinates":{"lon":37.416573,"lat":55.966324},"time_zone":"Europe/Moscow","name_translations":{"en":"Sheremetyevo International","de":"Moskau-Scheremetjewo","zh-CN":"谢列梅捷沃机场","ru":"Шереметьево","tr":"Şeremetyevo Uluslararası Havalimanı","it":"Sheremetyevo","fr":"Sheremetyevo","es":"Sheremetyevo","th":"สนามบินนานาชาติเชเรเมเตียโว"},"country_code":"RU","city_code":"MOW","cityName":"Moscow"},{"code":"NIM","name":"Niamey","coordinates":{"lon":2.177158,"lat":13.476534},"time_zone":"Africa/Niamey","name_translations":{"de":"Niamey","en":"Niamey","zh-CN":"尼亚美机场","tr":null,"ru":"Ниамей","it":"Niamey","fr":"Niamey","es":"Niamey","th":"สนามบินนีอาเม"},"country_code":"NE","city_code":"NIM","cityName":"Niamey"},{"code":"CGP","name":"Patenga","coordinates":{"lon":91.81516,"lat":22.245201},"time_zone":"Asia/Dhaka","name_translations":{"de":"Chittagong","en":"Patenga","zh-CN":"吉大港机场","tr":null,"it":"Patenga","fr":"Patenga","es":"Patenga","th":"สนามบินจิตตะกอง"},"country_code":"BD","city_code":"CGP","cityName":"Chittagong"},{"code":"SPU","name":"Split","coordinates":{"lon":16.29946,"lat":43.536526},"time_zone":"Europe/Zagreb","name_translations":{"de":"Split","en":"Split","zh-CN":"斯普利特机场","tr":null,"ru":"Сплит","it":"Split","fr":"Split","es":"Split","th":"สนามบินสปลิต"},"country_code":"HR","city_code":"SPU","cityName":"Split"},{"code":"DBV","name":"Dubrovnik","coordinates":{"lon":18.260616,"lat":42.56072},"time_zone":"Europe/Zagreb","name_translations":{"de":"Dubrovnik","en":"Dubrovnik","zh-CN":"杜勃罗夫尼克机场","tr":null,"ru":"Дубровник","it":"Dubrovnik","fr":"Dubrovnik","es":"Dubrovnik","th":"สนามบินดูบรอฟนิก"},"country_code":"HR","city_code":"DBV","cityName":"Dubrovnik"},{"code":"SKP","name":"Alexander The Great Airport","coordinates":{"lon":21.62872,"lat":41.95649},"time_zone":"Europe/Skopje","name_translations":{"de":"Skopje","en":"Alexander The Great Airport","zh-CN":"斯科普里机场","tr":null,"it":"Skopje","fr":"Skopje","es":"Skopje","th":"สนามบินสโกเปีย"},"country_code":"MK","city_code":"SKP","cityName":"Skopje"},{"code":"ADD","name":"Bole International","coordinates":{"lon":38.7959,"lat":8.983759},"time_zone":"Africa/Addis_Ababa","name_translations":{"de":"Addis Ababa","en":"Bole International","zh-CN":"博莱机场","tr":null,"it":"Bole","fr":"Bole","es":"Bole","th":"สนามบินแอดดิสอาบาบา"},"country_code":"ET","city_code":"ADD","cityName":"Addis Ababa"},{"code":"ZNZ","name":"Kisauni","coordinates":{"lon":39.221184,"lat":-6.218466},"time_zone":"Africa/Dar_es_Salaam","name_translations":{"de":"Sansibar","en":"Kisauni","zh-CN":"桑吉巴机场","tr":"Kisauni","it":"Kisauni","fr":"Kisauni","es":"Kisauni","th":"สนามบินแซนซิบาร์"},"country_code":"TZ","city_code":"ZNZ","cityName":"Zanzibar"},{"code":"MLA","name":"Malta International","coordinates":{"lon":14.495401,"lat":35.849777},"time_zone":"Europe/Malta","name_translations":{"de":"Malta Luqa","en":"Malta International","zh-CN":"马耳他鲁卡机场","tr":"Luqa Int. Apt.","it":"Luqa","fr":"Luqa","es":"Luqa","th":"สนามบินนานาชาติมอลตา"},"country_code":"MT","city_code":"MLA","cityName":"Gudja"},{"code":"HAM","name":"Hamburg Airport","coordinates":{"lon":10.006414,"lat":53.63128},"time_zone":"Europe/Berlin","name_translations":{"en":"Hamburg Airport","de":"Hamburg-Fuhlsbüttel","zh-CN":"富尔斯布泰机场","ru":"Аэропорт Гамбурга","tr":"Fuhlsbuettel","it":"Fuhlsbüttel","fr":"Fuhlsbüttel","es":"Fuhlsbüttel","th":"สนามบินฮัมบูร์ก"},"country_code":"DE","city_code":"HAM","cityName":"Hamburg"},{"code":"LIN","name":"Linate","coordinates":{"lon":9.279157,"lat":45.460957},"time_zone":"Europe/Rome","name_translations":{"de":"Mailand Linate","en":"Linate","zh-CN":"米兰林内特机场","tr":"Linate","it":"Aeroporto Milano Linate","fr":"Linate","es":"Linate","th":"สนามบินลินาเต"},"country_code":"IT","city_code":"MIL","cityName":"Milan"},{"code":"MAN","name":"Ringway International Airport","coordinates":{"lon":-2.273354,"lat":53.362907},"time_zone":"Europe/London","name_translations":{"en":"Ringway International Airport","de":"Manchester","zh-CN":"曼彻斯特机场","ru":"Манчестер","tr":"","it":"Manchester","fr":"Manchester","es":"Manchester","th":"สนามบินแมนเชสเตอร์"},"country_code":"GB","city_code":"MAN","cityName":"Manchester"},{"code":"TXL","name":"Berlin-tegel / Otto Lilienthal","coordinates":{"lon":13.291722,"lat":52.553944},"time_zone":"Europe/Berlin","name_translations":{"de":"Berlin Tegel","en":"Berlin-tegel / Otto Lilienthal","zh-CN":"泰格尔机场","tr":"Tegel \\/ Otto Lilienthal","it":"Tegel","fr":"Tegel","es":"Tegel","th":"สนามบินเบอร์ลินเทเกล"},"country_code":"DE","city_code":"BER","cityName":"Berlin"},{"code":"CTA","name":"Fontanarossa","coordinates":{"lon":15.065877,"lat":37.47066},"time_zone":"Europe/Rome","name_translations":{"de":"Catania","en":"Fontanarossa","zh-CN":"卡塔尼亚机场","tr":"Catania-Fontanarossa Apt","it":"Aeroporto Fontanarossa","fr":"Fontanarossa","es":"Fontanarossa","th":"สนามบินคาตาเนียฟอนตานารอสซา"},"country_code":"IT","city_code":"CTA","cityName":"Catania"},{"code":"DJE","name":"Djerba-Zarzis","coordinates":{"lon":10.775145,"lat":33.87118},"time_zone":"Africa/Tunis","name_translations":{"de":"Djerba","en":"Djerba-Zarzis","zh-CN":"查尔巴机场","tr":null,"it":"Melita","fr":"Melita","es":"Melita","th":"เจอร์บา / ดิเจอร์บา"},"country_code":"TN","city_code":"DJE","cityName":"Djerba"},{"code":"SFJ","name":"Kangerlussuaq","coordinates":{"lon":-50.719723,"lat":67.01222},"time_zone":"America/Godthab","name_translations":{"de":"Kangerlussuaq","en":"Kangerlussuaq","tr":"Sondre Stromfjord Havalimanı","it":"Kangerlussuaq","fr":"Kangerlussuaq","es":"Kangerlussuaq","th":"สนามบินแคงเกอร์ลัสซูอาค"},"country_code":"GL","city_code":"SFJ","cityName":"Kangerlussuaq"},{"code":"BJL","name":"Yundum International","coordinates":{"lon":-16.6522,"lat":13.34406},"time_zone":"Africa/Banjul","name_translations":{"de":"Banjul","en":"Yundum International","tr":null,"it":"Yundum International","fr":"Yundum International","es":"Yundum International","th":"สนามบินบันจูล"},"country_code":"GM","city_code":"BJL","cityName":"Banjul"},{"code":"CND","name":"Kogalniceanu","coordinates":{"lon":28.483334,"lat":44.35},"time_zone":"Europe/Bucharest","name_translations":{"de":"Constanza Rumänien","en":"Kogalniceanu","zh-CN":"康斯坦察Kogalniceanu机场","tr":null,"it":"Kogalniceanu","fr":"Kogalniceanu","es":"Kogalniceanu","th":"โคนสตันต์ซา โคกัลนิเซนู"},"country_code":"RO","city_code":"CND","cityName":"Constanta"},{"code":"BGY","name":"Bergamo - Orio al Serio","coordinates":{"lon":9.698713,"lat":45.665314},"time_zone":"Europe/Rome","name_translations":{"en":"Bergamo - Orio al Serio","en-GB":"","en-AU":"","de":"Mailand Bergamo","zh-CN":"贝加莫机场","ru":"Бергамо - Orio al Serio","tr":"Bergamo - Orio Al Serio Airport","it":"Aeroporto di Bergamo Orio al Serio","fr":"Orio Al Serio","es":"Orio Al Serio","th":"สนามบินโอริโออัลเซริโอ"},"country_code":"IT","city_code":"MIL","cityName":"Milan"},{"code":"AAL","name":"Aalborg","coordinates":{"lon":9.872241,"lat":57.08655},"time_zone":"Europe/Copenhagen","name_translations":{"de":"Aalborg","en":"Aalborg","zh-CN":"奥尔堡机场","tr":null,"ru":"Аальборг","it":"Aalborg","fr":"Aalborg","es":"Aalborg","th":"สนามบินอัลบอร์ก"},"country_code":"DK","city_code":"AAL","cityName":"Aalborg"},{"code":"CHQ","name":"Souda","coordinates":{"lon":24.140373,"lat":35.5402},"time_zone":"Europe/Athens","name_translations":{"de":"Chania","en":"Souda","zh-CN":"干尼亚","tr":"Souda Airport","it":"Souda","fr":"Souda","es":"Souda","th":"ครีต ชาเนีย"},"country_code":"GR","city_code":"CHQ","cityName":"Chania"},{"code":"NDR","name":"Nador","coordinates":{"lon":-3.028333,"lat":34.988888},"time_zone":"Africa/Casablanca","name_translations":{"de":"Nador","en":"Nador","zh-CN":"纳祖尔机场","tr":null,"ru":"Надор","it":"Nador","fr":"Nador","es":"Nador","th":"สนามบินนาเดอร์"},"country_code":"MA","city_code":"NDR","cityName":"Nador"},{"code":"ISB","name":"Islamabad International","coordinates":{"lon":73.1051,"lat":33.609707},"time_zone":"Asia/Karachi","name_translations":{"de":"Islamabad","en":"Islamabad International","zh-CN":"伊斯兰堡机场","tr":null,"it":"Islamabad Intl","fr":"Islamabad Intl","es":"Islamabad Intl","th":"สนามบินอิสลามาบัด"},"country_code":"PK","city_code":"ISB","cityName":"Islamabad"},{"code":"HMB","name":"Mubarak International","coordinates":{"lon":31.737167,"lat":26.338877},"time_zone":"Africa/Cairo","name_translations":{"de":"Sohag International","en":"Mubarak International","tr":"Sohag International Airport","it":"Sohag International","fr":"Sohag International","es":"Sohag International","th":"สนามบินโซฮัก"},"country_code":"EG","city_code":"HMB","cityName":"Sohag"},{"code":"SSH","name":"Sharm el-Sheikh International Airport","coordinates":{"lon":34.385254,"lat":27.979357},"time_zone":"Africa/Cairo","name_translations":{"de":"Flughafen Scharm El-Scheich","en":"Sharm el-Sheikh International Airport","zh-CN":"沙姆沙伊赫机场","tr":null,"ru":"Шарм-эль-Шейх","it":"Aeroporto Internazionale di Sharm el-Sheikh","fr":"Aéroport international de Charm el-Cheikh","es":"Aeropuerto Internacional de Sharm el-Sheij","th":"สนามบินชาร์มเอลเชค"},"country_code":"EG","city_code":"SSH","cityName":"Sharm el-Sheikh"},{"code":"TRV","name":"Thiruvananthapuram International","coordinates":{"lon":76.91907,"lat":8.476126},"time_zone":"Asia/Kolkata","name_translations":{"de":"Trivandrum","en":"Thiruvananthapuram International","zh-CN":"特里凡得琅","tr":null,"it":"Thiruvananthapuram","fr":"Thiruvananthapuram","es":"Thiruvananthapuram","th":"สนามบินนานาชาติติรุวนันทปุรัม"},"country_code":"IN","city_code":"TRV","cityName":"Thiruvananthapuram"},{"code":"MNL","name":"Ninoy Aquino International","coordinates":{"lon":121.01251,"lat":14.509602},"time_zone":"Asia/Manila","name_translations":{"en":"Ninoy Aquino International","de":"Ninoy Aquino International","zh-CN":"尼诺阿基诺机场","ru":"","tr":"","it":"Ninoy Aquino Intl","fr":"Ninoy Aquino Intl","es":"Ninoy Aquino Intl","th":"สนามบินนานาชาตินินอยอาควิโน"},"country_code":"PH","city_code":"MNL","cityName":"Manila"},{"code":"LXR","name":"Luxor","coordinates":{"lon":32.699684,"lat":25.67492},"time_zone":"Africa/Cairo","name_translations":{"de":"Luxor","en":"Luxor","zh-CN":"卢克索机场","tr":null,"ru":"Луксор","it":"Luxor","fr":"Luxor","es":"Luxor","th":"สนามบินลุกซอร์"},"country_code":"EG","city_code":"LXR","cityName":"Luxor"},{"code":"ATZ","name":"Assiut","coordinates":{"lon":31,"lat":27.033333},"time_zone":"Africa/Cairo","name_translations":{"de":"Assiut","en":"Assiut","zh-CN":"阿西乌特机场","tr":null,"ru":"Асьют","it":"Assiut","fr":"Assiut","es":"Assiut","th":"สนามบินอัสยูท"},"country_code":"EG","city_code":"ATZ","cityName":"Assiut"},{"code":"BTJ","name":"Sultan Iskandarmuda Airport","coordinates":{"lon":95.41833,"lat":5.518021},"time_zone":"Asia/Jakarta","name_translations":{"de":"Banda Aceh","en":"Sultan Iskandarmuda Airport","zh-CN":"班达亚齐机场","tr":null,"it":"Blang Bintang","fr":"Blang Bintang","es":"Blang Bintang","th":"สนามบินบันดาร์อาเจะห์"},"country_code":"ID","city_code":"BTJ","cityName":"Banda Aceh"},{"code":"PKU","name":"Sultan Syarif Kasim Ii","coordinates":{"lon":101.446884,"lat":0.464563},"time_zone":"Asia/Jakarta","name_translations":{"de":"Pekanbaru","en":"Sultan Syarif Kasim Ii","zh-CN":"北干巴鲁","tr":null,"it":"Simpang Tiga","fr":"Simpang Tiga","es":"Simpang Tiga","th":"สนามบินเปกันบารู"},"country_code":"ID","city_code":"PKU","cityName":"Pekanbaru"},{"code":"BKI","name":"Kota-Kinabalu International Airport","coordinates":{"lon":116.05075,"lat":5.923961},"time_zone":"Asia/Kuching","name_translations":{"de":"Kota Kinabalu","en":"Kota-Kinabalu International Airport","zh-CN":"哥打基纳巴鲁机场","tr":null,"it":"Kota Kinabalu","fr":"Kota Kinabalu","es":"Kota Kinabalu","th":"สนามบินนานาชาติโคตาคินาบาลู"},"country_code":"MY","city_code":"BKI","cityName":"Kota-Kinabalu"},{"code":"LBU","name":"Labuan","coordinates":{"lon":115.24916,"lat":5.294355},"time_zone":"Asia/Kuching","name_translations":{"de":"Labuan","en":"Labuan","zh-CN":"拉布安机场","tr":null,"it":"Labuan","fr":"Labuan","es":"Labuan","th":"สนามบินลาบวน"},"country_code":"MY","city_code":"LBU","cityName":"Labuan"},{"code":"SDK","name":"Sandakan","coordinates":{"lon":118.06184,"lat":5.896877},"time_zone":"Asia/Kuching","name_translations":{"de":"Sandakan","en":"Sandakan","zh-CN":"山打根机场","tr":null,"ru":"Сандакан","it":"Sandakan","fr":"Sandakan","es":"Sandakan","th":"สนามบินซานดากัน"},"country_code":"MY","city_code":"SDK","cityName":"Sandakan"},{"code":"KCH","name":"Kuching","coordinates":{"lon":110.340836,"lat":1.484167},"time_zone":"Asia/Kuching","name_translations":{"de":"Kuching","en":"Kuching","zh-CN":"古晋机场","tr":null,"ru":"Кучинг","it":"Kuching","fr":"Kuching","es":"Kuching","th":"สนามบินกูชิง"},"country_code":"MY","city_code":"KCH","cityName":"Kuching"},{"code":"PEN","name":"Penang International","coordinates":{"lon":100.265175,"lat":5.292961},"time_zone":"Asia/Kuala_Lumpur","name_translations":{"de":"Penang","en":"Penang International","zh-CN":"槟城机场","tr":null,"it":"Penang International","fr":"Penang International","es":"Penang International","th":"สนามบินนานาชาติปีนัง"},"country_code":"MY","city_code":"PEN","cityName":"Penang"},{"code":"LGK","name":"Langakawi International","coordinates":{"lon":99.7314,"lat":6.342174},"time_zone":"Asia/Kuala_Lumpur","name_translations":{"de":"Langkawi","en":"Langakawi International","zh-CN":"兰卡威机场","tr":null,"it":"Langkawi","fr":"Langkawi","es":"Langkawi","th":"สนามบินลังกาวี"},"country_code":"MY","city_code":"LGK","cityName":"Langkawi"},{"code":"TRZ","name":"Civil","coordinates":{"lon":78.70724,"lat":10.762168},"time_zone":"Asia/Kolkata","name_translations":{"de":"Tiruchirapally","en":"Civil","zh-CN":"蒂鲁吉拉帕利公民机场","tr":null,"it":"Civil","fr":"Civil","es":"Civil","th":"สนามบินทิรุจิราปาลลิ"},"country_code":"IN","city_code":"TRZ","cityName":"Tiruchirapally"},{"code":"TWU","name":"Tawau","coordinates":{"lon":117.884865,"lat":4.26275},"time_zone":"Asia/Kuching","name_translations":{"de":"Tawau","en":"Tawau","zh-CN":"斗湖机场","tr":null,"it":"Tawau","fr":"Tawau","es":"Tawau","th":"สนามบินตาวาอู"},"country_code":"MY","city_code":"TWU","cityName":"Tawau"},{"code":"SBW","name":"Sibu","coordinates":{"lon":111.98657,"lat":2.254997},"time_zone":"Asia/Kuching","name_translations":{"de":"Sibu","en":"Sibu","zh-CN":"诗巫机场","tr":null,"it":"Sibu","fr":"Sibu","es":"Sibu","th":"สนามบินซิบู"},"country_code":"MY","city_code":"SBW","cityName":"Sibu"},{"code":"KBR","name":"Sultan Ismail Petra","coordinates":{"lon":102.29092,"lat":6.17057},"time_zone":"Asia/Kuala_Lumpur","name_translations":{"de":"Kota Bharu","en":"Sultan Ismail Petra","zh-CN":"哥达巴鲁机场","tr":null,"it":"Pengkalan Chepa","fr":"Pengkalan Chepa","es":"Pengkalan Chepa","th":"สนามบินโกตาบารู"},"country_code":"MY","city_code":"KBR","cityName":"Kota Bharu"},{"code":"VTZ","name":"Vishakhapatnam","coordinates":{"lon":83.22675,"lat":17.728151},"time_zone":"Asia/Kolkata","name_translations":{"de":"Vishakhapatnam","en":"Vishakhapatnam","zh-CN":"维沙卡帕特南机场","tr":null,"ru":"Вишакхапатнам","it":"Vishakhapatnam","fr":"Vishakhapatnam","es":"Vishakhapatnam","th":"สนามบินวิสาขปัตนัม"},"country_code":"IN","city_code":"VTZ","cityName":"Vishakhapatnam"},{"code":"DAD","name":"Da Nang","coordinates":{"lon":108.20298,"lat":16.055399},"time_zone":"Asia/Ho_Chi_Minh","name_translations":{"de":"Da Nang","en":"Da Nang","zh-CN":"岘港机场","tr":null,"ru":"Да-Нанг","it":"Da Nang","fr":"Da Nang","es":"Da Nang","th":"สนามบินดานัง"},"country_code":"VN","city_code":"DAD","cityName":"Da Nang"},{"code":"HDY","name":"Hat Yai","coordinates":{"lon":100.39356,"lat":6.936764},"time_zone":"Asia/Bangkok","name_translations":{"de":"Hatyai","en":"Hat Yai","zh-CN":"合艾机场","tr":null,"ru":"Хат Яй","it":"Hat Yai","fr":"Hat Yai","es":"Hat Yai","th":"สนามบินนานาชาติหาดใหญ่"},"country_code":"TH","city_code":"HDY","cityName":"Hat Yai"},{"code":"KHH","name":"Kaoshiung International Airport","coordinates":{"lon":120.345276,"lat":22.5725},"time_zone":"Asia/Taipei","name_translations":{"de":"Kaohsiung","en":"Kaoshiung International Airport","zh-CN":"高雄国际机场","tr":"Kaohsiung Int. Airport","it":"Kaohsiung","fr":"Kaohsiung","es":"Kaohsiung","th":"สนามบินเกาสง"},"country_code":"TW","city_code":"KHH","cityName":"Kaohsiung"},{"code":"UPG","name":"Hasanudin","coordinates":{"lon":119.54589,"lat":-5.058312},"time_zone":"Asia/Makassar","name_translations":{"de":"Ujung Pandang","en":"Hasanudin","zh-CN":"乌戎潘当机场","tr":null,"it":"Hasanudin","fr":"Hasanudin","es":"Hasanudin","th":"สนามบินมาคาสซาร์"},"country_code":"ID","city_code":"UPG","cityName":"Ujung Pandang"},{"code":"DPS","name":"Ngurah Rai International","coordinates":{"lon":115.16331,"lat":-8.74446},"time_zone":"Asia/Makassar","name_translations":{"en":"Ngurah Rai International","de":"Internationale Flughafen Ngurah Rai","zh-CN":"巴厘岛机场","ru":"","tr":"","it":"Ngurah Rai","fr":"Ngurah Rai","es":"Ngurah Rai","th":"สนามบินนานาชาติบาหลีเดนปาซาร์"},"country_code":"ID","city_code":"DPS","cityName":"Denpasar"},{"code":"BDO","name":"Husein Sastranegara","coordinates":{"lon":107.58178,"lat":-6.904648},"time_zone":"Asia/Jakarta","name_translations":{"de":"Bandung","en":"Husein Sastranegara","zh-CN":"万隆","tr":null,"it":"Husein Sastranegara","fr":"Husein Sastranegara","es":"Husein Sastranegara","th":"สนามบินฮูเซนศาสตราเนการา"},"country_code":"ID","city_code":"BDO","cityName":"Bandung"},{"code":"CNX","name":"Chiang Mai International","coordinates":{"lon":98.96841,"lat":18.769573},"time_zone":"Asia/Bangkok","name_translations":{"de":"Chiang Mai","en":"Chiang Mai International","zh-CN":"清迈机场","tr":null,"it":"Chiang Mai","fr":"Chiang Mai","es":"Chiang Mai","th":"สนามบินนานาชาติเชียงใหม่"},"country_code":"TH","city_code":"CNX","cityName":"Chiang Mai"},{"code":"MYY","name":"Miri","coordinates":{"lon":113.983116,"lat":4.325261},"time_zone":"Asia/Kuching","name_translations":{"de":"Miri","en":"Miri","zh-CN":"米里机场","tr":null,"ru":"Мири","it":"Miri","fr":"Miri","es":"Miri","th":"สนามบินมีรี"},"country_code":"MY","city_code":"MYY","cityName":"Miri"},{"code":"DMK","name":"Don Muang","coordinates":{"lon":100.60667,"lat":13.9125},"time_zone":"Asia/Bangkok","name_translations":{"de":"Bangkok Dong Muang","en":"Don Muang","tr":"Don Mueang Airport","it":"Don Mueang Intl","fr":"Don Mueang Intl","es":"Don Mueang Intl","th":"สนามบินนานาชาติดอนเมือง"},"country_code":"TH","city_code":"BKK","cityName":"Bangkok"},{"code":"PNK","name":"Supadio","coordinates":{"lon":109.40533,"lat":-0.14735},"time_zone":"Asia/Pontianak","name_translations":{"de":"Supadio","en":"Supadio","zh-CN":"坤甸机场","tr":null,"it":"Supadio","fr":"Supadio","es":"Supadio","th":"สนามบินปอนติอานัค"},"country_code":"ID","city_code":"PNK","cityName":"Pontianak"},{"code":"MFM","name":"Macau International","coordinates":{"lon":113.57285,"lat":22.156588},"time_zone":"Asia/Macau","name_translations":{"de":"Macao","en":"Macau International","zh-CN":"澳门机场","tr":null,"it":"Macau","fr":"Macau","es":"Macau","th":"สนามบินมาเก๊า"},"country_code":"MO","city_code":"MFM","cityName":"Macau"},{"code":"PDG","name":"Minangkabau International Airport","coordinates":{"lon":100.280556,"lat":-0.786667},"time_zone":"Asia/Jakarta","name_translations":{"de":"Padang","en":"Minangkabau International Airport","zh-CN":"米南卡包国际机场","tr":null,"it":"Tabing","fr":"Tabing","es":"Tabing","th":"สนามบินปาดัง"},"country_code":"ID","city_code":"PDG","cityName":"Padang"},{"code":"RGN","name":"Mingaladon","coordinates":{"lon":96.134155,"lat":16.900068},"time_zone":"Asia/Rangoon","name_translations":{"de":"Yangoon","en":"Mingaladon","zh-CN":"仰光明家拉敦机场","tr":null,"it":"Mingaladon","fr":"Mingaladon","es":"Mingaladon","th":"สนามบินย่างกุ้ง"},"country_code":"MM","city_code":"RGN","cityName":"Yangon"},{"code":"PNH","name":"Phnom Penh International","coordinates":{"lon":104.84778,"lat":11.546111},"time_zone":"Asia/Phnom_Penh","name_translations":{"de":"Phnom Penh","en":"Phnom Penh International","zh-CN":"金边波成东机场","tr":null,"it":"Pochentong","fr":"Pochentong","es":"Pochentong","th":"สนามบินพนมเปญ"},"country_code":"KH","city_code":"PNH","cityName":"Phnom Penh"},{"code":"AOR","name":"Alor Setar","coordinates":{"lon":100.405266,"lat":6.201171},"time_zone":"Asia/Kuala_Lumpur","name_translations":{"de":"Alor Setar","en":"Alor Setar","zh-CN":"苏丹阿都哈林机场","tr":null,"ru":"Алор-Сетар","it":"Alor Setar","fr":"Alor Setar","es":"Alor Setar","th":"สนามบินอลอร์สตาร์"},"country_code":"MY","city_code":"AOR","cityName":"Alor Setar"},{"code":"SUB","name":"Juanda","coordinates":{"lon":112.77724,"lat":-7.38387},"time_zone":"Asia/Jakarta","name_translations":{"de":"Surabaya","en":"Juanda","zh-CN":"朱安达泗水机场","tr":null,"it":"Juanda","fr":"Juanda","es":"Juanda","th":"สนามบินนานาชาติจูอันดา"},"country_code":"ID","city_code":"SUB","cityName":"Surabaya"},{"code":"KNO","name":"Kuala Namu International Airport","coordinates":{"lon":98.8705,"lat":3.637833},"time_zone":"Asia/Jakarta","name_translations":{"en":"Kuala Namu International Airport","en-GB":"","en-AU":"","de":"Internationaler Flughafen Kuala Namu","zh-CN":"","ru":"Международный аэропорт Куала-Наму","tr":"","en-CA":"","en-NZ":"","en-IE":"","en-SG":"","en-IN":"","es":"Aeropuerto internacional de Kuala Namu","fr":"Aéroport international de Kuala Namu","it":"Aeroporto internazionale di Kuala Namu ","th":"สนามบินกัวลานามู"},"country_code":"ID","city_code":"MES","cityName":"Medan"},{"code":"BTU","name":"Bintulu","coordinates":{"lon":113.04346,"lat":3.171772},"time_zone":"Asia/Kuching","name_translations":{"de":"Bintulu","en":"Bintulu","zh-CN":"宾图卢机场","tr":null,"it":"Bintulu","fr":"Bintulu","es":"Bintulu","th":"สนามบินบินตูลู"},"country_code":"MY","city_code":"BTU","cityName":"Bintulu"},{"code":"NNG","name":"Nanning","coordinates":{"lon":108.1675,"lat":22.61321},"time_zone":"Asia/Shanghai","name_translations":{"de":"Nanning","en":"Nanning","zh-CN":"南宁吴圩机场","tr":null,"ru":"Наньнин","it":"Nanning","fr":"Nanning","es":"Nanning","th":"สนามบินหนานหนิง"},"country_code":"CN","city_code":"NNG","cityName":"Nanning"},{"code":"SRG","name":"Achmad Yani","coordinates":{"lon":110.37855,"lat":-6.979155},"time_zone":"Asia/Jakarta","name_translations":{"de":"Semarang","en":"Achmad Yani","zh-CN":"三宝拢机场","tr":null,"it":"Achmad Uani","fr":"Achmad Uani","es":"Achmad Uani","th":"สนามบินเซมารัง"},"country_code":"ID","city_code":"SRG","cityName":"Semarang"},{"code":"JOG","name":"Adisutjipto","coordinates":{"lon":110.43706,"lat":-7.785572},"time_zone":"Asia/Jakarta","name_translations":{"de":"Yogyakarta","en":"Adisutjipto","zh-CN":"日惹机场","tr":null,"it":"Adisutjipto","fr":"Adisutjipto","es":"Adisutjipto","th":"สนามบินอดิซูซิปโต"},"country_code":"ID","city_code":"JOG","cityName":"Yogyakarta"},{"code":"SOC","name":"Adi Sumarmo","coordinates":{"lon":110.75667,"lat":-7.51583},"time_zone":"Asia/Jakarta","name_translations":{"de":"Solo City","en":"Adi Sumarmo","zh-CN":"苏位卡尔塔机场","tr":null,"it":"Adi Sumarmo","fr":"Adi Sumarmo","es":"Adi Sumarmo","th":"สนามบินอดิสุมาร์โม"},"country_code":"ID","city_code":"SOC","cityName":"Solo City"},{"code":"SGN","name":"Tan Son Nhat International","coordinates":{"lon":106.662476,"lat":10.813045},"time_zone":"Asia/Ho_Chi_Minh","name_translations":{"en":"Tan Son Nhat International","de":"Tan Son Nhat International ","zh-CN":"胡志明市机场","ru":"","tr":"","it":"Ho Chi Minh City","fr":"Ho Chi Minh City","es":"Ho Chi Minh City","th":"สนามบินนานาชาติเตินเซินเญิ้ต"},"country_code":"VN","city_code":"SGN","cityName":"Ho Chi Minh City"},{"code":"TGG","name":"Sultan Mahmood","coordinates":{"lon":103.10642,"lat":5.380504},"time_zone":"Asia/Kuala_Lumpur","name_translations":{"de":"Kuala Terengganu","en":"Sultan Mahmood","zh-CN":"瓜拉丁加奴机场","tr":null,"it":"Sultan Mahmood","fr":"Sultan Mahmood","es":"Sultan Mahmood","th":"สนามบินกัวลาตรังกานู"},"country_code":"MY","city_code":"TGG","cityName":"Kuala Terengganu"},{"code":"JHB","name":"Sultan Ismail International","coordinates":{"lon":103.67083,"lat":1.638889},"time_zone":"Asia/Kuala_Lumpur","name_translations":{"de":"Johor Bahru","en":"Sultan Ismail International","zh-CN":"新山机场","tr":null,"it":"Sultan Ismail Intl","fr":"Sultan Ismail Intl","es":"Sultan Ismail Intl","th":"สนามบินยะโฮร์บาห์รู"},"country_code":"MY","city_code":"JHB","cityName":"Johor Bahru"},{"code":"REP","name":"Siem Reap","coordinates":{"lon":103.815926,"lat":13.408436},"time_zone":"Asia/Phnom_Penh","name_translations":{"de":"Siem Reap","en":"Siem Reap","zh-CN":"暹粒机场","tr":null,"ru":"Сием Рип","it":"Siem Reap","fr":"Siem Reap","es":"Siem Reap","th":"สนามบินเสียมราฐ"},"country_code":"KH","city_code":"REP","cityName":"Siem Reap"},{"code":"KBV","name":"Krabi","coordinates":{"lon":98.98062,"lat":8.097281},"time_zone":"Asia/Bangkok","name_translations":{"de":"Krabi","en":"Krabi","zh-CN":"喀比机场","tr":null,"ru":"Краби","it":"Krabi","fr":"Krabi","es":"Krabi","th":"สนามบินกระบี่"},"country_code":"TH","city_code":"KBV","cityName":"Krabi"},{"code":"HKT","name":"Phuket International","coordinates":{"lon":98.306435,"lat":8.107619},"time_zone":"Asia/Bangkok","name_translations":{"de":"Phuket","en":"Phuket International","zh-CN":"普吉机场","tr":null,"it":"Phuket","fr":"Phuket","es":"Phuket","th":"สนามบินนานาชาติภูเก็ต"},"country_code":"TH","city_code":"HKT","cityName":"Phuket"},{"code":"SZX","name":"Shenzhen","coordinates":{"lon":113.81084,"lat":22.639444},"time_zone":"Asia/Shanghai","name_translations":{"de":"Shenzhen","en":"Shenzhen","zh-CN":"深圳宝安机场","tr":null,"ru":"Шэньчжэнь","it":"Shenzhen","fr":"Shenzhen","es":"Shenzhen","th":"สนามบินนานาชาติเซินเจิ้นเป่าอัน"},"country_code":"CN","city_code":"SZX","cityName":"Shenzhen"},{"code":"KWL","name":"Guilin","coordinates":{"lon":110.316666,"lat":25.133333},"time_zone":"Asia/Shanghai","name_translations":{"de":"Guilin","en":"Guilin","zh-CN":"桂林两江机场","tr":null,"ru":"Гуйлинь","it":"Guilin","fr":"Guilin","es":"Guilin","th":"สนามบินกุ้ยหลิน"},"country_code":"CN","city_code":"KWL","cityName":"Guilin"},{"code":"PLM","name":"Mahmud Badaruddin Ii","coordinates":{"lon":104.69861,"lat":-2.900146},"time_zone":"Asia/Jakarta","name_translations":{"de":"Palembang","en":"Mahmud Badaruddin Ii","zh-CN":"巨港机场","tr":null,"it":"Mahmud Badaruddin Ii","fr":"Mahmud Badaruddin Ii","es":"Mahmud Badaruddin Ii","th":"สนามบินปาเลมบัง"},"country_code":"ID","city_code":"PLM","cityName":"Palembang"},{"code":"UTP","name":"Utapao","coordinates":{"lon":101.01667,"lat":12.683333},"time_zone":"Asia/Bangkok","name_translations":{"de":"Utapao","en":"Utapao","zh-CN":"乌塔保机场","tr":null,"ru":"Утапао","it":"Utapao","fr":"Utapao","es":"Utapao","th":"สนามบินอู่ตะเภา"},"country_code":"TH","city_code":"UTP","cityName":"Pattaya"},{"code":"TPE","name":"Taiwan Taoyuan International (Chiang Kai Shek International)","coordinates":{"lon":121.22389,"lat":25.07639},"time_zone":"Asia/Taipei","name_translations":{"en":"Taiwan Taoyuan International (Chiang Kai Shek International)","de":"Internationale Flughafen Taiwan Taoyuan","zh-CN":"台北桃园机场","ru":"","tr":"Chiang Kai Shek","it":"Taoyuan Intl","fr":"Taoyuan Intl","es":"Taoyuan Intl","th":"สนามบินเถาหยวน"},"country_code":"TW","city_code":"TPE","cityName":"Taipei"},{"code":"HGH","name":"Hangzhou","coordinates":{"lon":120.43236,"lat":30.236935},"time_zone":"Asia/Shanghai","name_translations":{"de":"Hangzhou","en":"Hangzhou","zh-CN":"杭州萧山机场","tr":null,"ru":"Ханчжоу","it":"Hangzhou","fr":"Hangzhou","es":"Hangzhou","th":"สนามบินหางโจว"},"country_code":"CN","city_code":"HGH","cityName":"Hangzhou"},{"code":"BWN","name":"Bandar Seri Begwan International Airport","coordinates":{"lon":114.93375,"lat":4.945197},"time_zone":"Asia/Brunei","name_translations":{"de":"Bandar Seri Begwan","en":"Bandar Seri Begwan International Airport","zh-CN":"斯里巴加湾机场","tr":null,"it":"Brunei International","fr":"Brunei International","es":"Brunei International","th":"สนามบินบันดาร์เสรีเบกาวัน"},"country_code":"BN","city_code":"BWN","cityName":"Bandar Seri Begawan"},{"code":"HAN","name":"Noibai International","coordinates":{"lon":105.802826,"lat":21.214184},"time_zone":"Asia/Ho_Chi_Minh","name_translations":{"de":"Hanoi","en":"Noibai International","zh-CN":"河内机场","tr":"Noibai","it":"Noibai","fr":"Noibai","es":"Noibai","th":"สนามบินฮานอย"},"country_code":"VN","city_code":"HAN","cityName":"Hanoi"},{"code":"URT","name":"Surat Thani","coordinates":{"lon":99.143196,"lat":9.133865},"time_zone":"Asia/Bangkok","name_translations":{"de":"Surat Thani","en":"Surat Thani","zh-CN":"万伦机场","tr":null,"ru":"Сурат-Тхани","it":"Surat Thani","fr":"Surat Thani","es":"Surat Thani","th":"สนามบินสุราษฎร์ธานี"},"country_code":"TH","city_code":"URT","cityName":"Surat Thani"},{"code":"HYD","name":"Hyderabad Airport","coordinates":{"lon":78.428055,"lat":17.24},"time_zone":"Asia/Kolkata","name_translations":{"de":"Hyderabad Indien","en":"Hyderabad Airport","zh-CN":"海德拉巴机场","tr":null,"it":"Rajiv Gandhi Intl","fr":"Rajiv Gandhi Intl","es":"Rajiv Gandhi Intl","th":"สนามบินไฮเดอราบาด"},"country_code":"IN","city_code":"HYD","cityName":"Hyderabad"},{"code":"KLO","name":"Kalibo","coordinates":{"lon":122.38183,"lat":11.687152},"time_zone":"Asia/Manila","name_translations":{"de":"Kalibo","en":"Kalibo","zh-CN":"卡利博机场","tr":null,"ru":"Калибо","it":"Kalibo","fr":"Kalibo","es":"Kalibo","th":"สนามบินคาลิโบ"},"country_code":"PH","city_code":"KLO","cityName":"Kalibo"},{"code":"BPN","name":"Sepingan","coordinates":{"lon":116.90082,"lat":-1.260623},"time_zone":"Asia/Makassar","name_translations":{"de":"Balikpapan","en":"Sepingan","zh-CN":"巴里巴班机场","tr":null,"it":"Sepinnggan Airport","fr":"Sepinnggan Airport","es":"Sepinnggan Airport","th":"สนามบินบาลิกปาปัน"},"country_code":"ID","city_code":"BPN","cityName":"Balikpapan"},{"code":"CEB","name":"Mactan-Cebu International","coordinates":{"lon":123.98278,"lat":10.313333},"time_zone":"Asia/Manila","name_translations":{"de":"Cebu","en":"Mactan-Cebu International","zh-CN":"宿务机场","tr":"Matan International","it":"Mactan International","fr":"Mactan International","es":"Mactan International","th":"สนามบินซีบู"},"country_code":"PH","city_code":"CEB","cityName":"Cebu"},{"code":"GOI","name":"Goa International","coordinates":{"lon":73.83983,"lat":15.384534},"time_zone":"Asia/Kolkata","name_translations":{"en":"Goa International","de":"Dabolim","zh-CN":"果阿机场","ru":"","tr":"","it":"Dabolim","fr":"Dabolim","es":"Dabolim","th":"สนามบินกัว"},"country_code":"IN","city_code":"GOI","cityName":"Goa"},{"code":"CSX","name":"Changsha","coordinates":{"lon":113.21459,"lat":28.193336},"time_zone":"Asia/Shanghai","name_translations":{"de":"Changsha","en":"Changsha","zh-CN":"长沙黄花机场","tr":"Changsha Airport","ru":"Чангша","it":"Changsha","fr":"Changsha","es":"Changsha","th":"สนามบินฉางชา"},"country_code":"CN","city_code":"CSX","cityName":"Changsha"},{"code":"CKG","name":"Chongqing Jiangbei International","coordinates":{"lon":106.63408,"lat":29.72034},"time_zone":"Asia/Shanghai","name_translations":{"de":"Chongqing","en":"Chongqing Jiangbei International","zh-CN":"重庆江北机场","tr":null,"it":"Chongqing","fr":"Chongqing","es":"Chongqing","th":"สนามบินฉงชิ่ง"},"country_code":"CN","city_code":"CKG","cityName":"Chongqing"},{"code":"CRK","name":"Diosdado Macapagal International (Clark International)","coordinates":{"lon":120.546486,"lat":15.182571},"time_zone":"Asia/Manila","name_translations":{"en":"Diosdado Macapagal International (Clark International)","en-GB":"","en-AU":"","de":"Luzon","zh-CN":"吕宋岛机场","ru":"Кларк","tr":"Diosdado Macapagal\\/Clark","en-CA":"","en-NZ":"","en-IE":"","en-SG":"","en-IN":"","es":"Clark Field","fr":"Clark Field","it":"Clark Field","th":"คลาร์ก อินเตอร์เนชั่นแนล"},"country_code":"PH","city_code":"NCP","cityName":"Luzon Island"},{"code":"VTE","name":"Wattay","coordinates":{"lon":102.56772,"lat":17.975431},"time_zone":"Asia/Vientiane","name_translations":{"de":"Vientiane","en":"Wattay","zh-CN":"万象机场","tr":"Wattay","it":"Wattay","fr":"Wattay","es":"Wattay","th":"สนามบินเวียงจันทน์"},"country_code":"LA","city_code":"VTE","cityName":"Vientiane"},{"code":"SZB","name":"Sultan Abdul Aziz Shah","coordinates":{"lon":101.558075,"lat":3.130644},"time_zone":"Asia/Kuala_Lumpur","name_translations":{"en":"Sultan Abdul Aziz Shah","de":"Kuala Lumpur-Sultan Abdul Aziz Shah","zh-CN":"吉隆坡梳邦机场","ru":"","tr":"Sultan Abdul Aziz Shah","it":"Abdul Aziz Shah","fr":"Abdul Aziz Shah","es":"Abdul Aziz Shah","th":"กัวลาลัมเปอร์ สุลต่าน อับดุล อาซิซ ชาห์"},"country_code":"MY","city_code":"KUL","cityName":"Kuala Lumpur"},{"code":"KTE","name":"Kerteh","coordinates":{"lon":103.42833,"lat":4.538333},"time_zone":"Asia/Kuala_Lumpur","name_translations":{"de":"Kerteh","en":"Kerteh","zh-CN":"居茶机场","tr":"Kertech Havalimanı","ru":"Кертех","it":"Kerteh","fr":"Kerteh","es":"Kerteh","th":"สนามบินเคอร์เต้"},"country_code":"MY","city_code":"KTE","cityName":"Kerteh"},{"code":"IPH","name":"Sultan Azlan Shah Airport","coordinates":{"lon":101.09583,"lat":4.566944},"time_zone":"Asia/Kuala_Lumpur","name_translations":{"de":"Ipoh","en":"Sultan Azlan Shah Airport","zh-CN":"怡保苏丹阿斯兰沙国际机场","tr":null,"it":"Ipoh","fr":"Ipoh","es":"Ipoh","th":"สนามบินอีโปห์"},"country_code":"MY","city_code":"IPH","cityName":"Ipoh"},{"code":"KTM","name":"Tribhuvan International","coordinates":{"lon":85.35657,"lat":27.699905},"time_zone":"Asia/Kathmandu","name_translations":{"en":"Tribhuvan International","de":"Tribhuvan International","zh-CN":"特里布万机场","ru":"","tr":"","it":"Tribhuvan","fr":"Tribhuvan","es":"Tribhuvan","th":"สนามบินกาฐมาณฑุ"},"country_code":"NP","city_code":"KTM","cityName":"Kathmandu"},{"code":"KUA","name":"Kuantan","coordinates":{"lon":103.21518,"lat":3.780765},"time_zone":"Asia/Kuala_Lumpur","name_translations":{"de":"Kuantan","en":"Kuantan","zh-CN":"关丹机场","tr":null,"ru":"Куантан","it":"Kuantan","fr":"Kuantan","es":"Kuantan","th":"สนามบินกวนตัน"},"country_code":"MY","city_code":"KUA","cityName":"Kuantan"},{"code":"MED","name":"Mohammad Bin Abdulaziz","coordinates":{"lon":39.698967,"lat":24.544369},"time_zone":"Asia/Riyadh","name_translations":{"de":"Medina","en":"Mohammad Bin Abdulaziz","zh-CN":"麦地那城","tr":null,"it":"Mohammad Abdulaziz","fr":"Mohammad Abdulaziz","es":"Mohammad Abdulaziz","th":"สนามบินเมดินาห์"},"country_code":"SA","city_code":"MED","cityName":"Madinah"},{"code":"SYD","name":"Kingsford Smith","coordinates":{"lon":151.1799,"lat":-33.932922},"time_zone":"Australia/Sydney","name_translations":{"en":"Kingsford Smith","de":"Kingsford Smith International","zh-CN":"悉尼机场","ru":"","tr":"","it":"Kingsford Smith","fr":"Kingsford Smith","es":"Kingsford Smith","th":"สนามบินซิดนีย์"},"country_code":"AU","city_code":"SYD","cityName":"Sydney"},{"code":"MEL","name":"Tullamarine","coordinates":{"lon":144.84978,"lat":-37.669613},"time_zone":"Australia/Melbourne","name_translations":{"en":"Tullamarine","de":"Melbourne","zh-CN":"图拉曼里机场","ru":"","tr":"","it":"Tullamarine","fr":"Tullamarine","es":"Tullamarine","th":"สนามบินเมลเบิร์น"},"country_code":"AU","city_code":"MEL","cityName":"Melbourne"},{"code":"AKL","name":"Auckland International","coordinates":{"lon":174.78352,"lat":-37.004787},"time_zone":"Pacific/Auckland","name_translations":{"de":"Auckland","en":"Auckland International","zh-CN":"奥克兰机场","tr":null,"it":"Auckland Intl","fr":"Auckland Intl","es":"Auckland Intl","th":"สนามบินโอ๊คแลนด์"},"country_code":"NZ","city_code":"AKL","cityName":"Auckland"},{"code":"ADL","name":"Adelaide International Airport","coordinates":{"lon":138.53735,"lat":-34.938175},"time_zone":"Australia/Adelaide","name_translations":{"de":"Adelaide","en":"Adelaide International Airport","zh-CN":"阿德莱德机场","tr":null,"it":"Adelaide","fr":"Adelaide","es":"Adelaide","th":"สนามบินอเดเลด"},"country_code":"AU","city_code":"ADL","cityName":"Adelaide"},{"code":"KIX","name":"Kansai International","coordinates":{"lon":135.24397,"lat":34.43533},"time_zone":"Asia/Tokyo","name_translations":{"de":"Osaka Kansai","en":"Kansai International","zh-CN":"大阪关西机场","tr":"Kansai Intl","it":"Kansai International","fr":"Kansai International","es":"Kansai International","th":"สนามบินคันไซ"},"country_code":"JP","city_code":"OSA","cityName":"Osaka"},{"code":"ICN","name":"Seoul (Incheon)","coordinates":{"lon":126.45123,"lat":37.448524},"time_zone":"Asia/Seoul","name_translations":{"en":"Seoul (Incheon)","de":"Incheon","zh-CN":"首尔仁川机场","ru":"","tr":"Incheon International","it":"Incheon Intl Airport","fr":"Incheon Intl Airport","es":"Incheon Intl Airport","th":"สนามบินนานาชาติอินชอน"},"country_code":"KR","city_code":"SEL","cityName":"Seoul"},{"code":"BNE","name":"Brisbane International","coordinates":{"lon":153.10905,"lat":-27.40303},"time_zone":"Australia/Brisbane","name_translations":{"de":"Brisbane","en":"Brisbane International","zh-CN":"布里斯班机场","tr":null,"it":"Brisbane","fr":"Brisbane","es":"Brisbane","th":"สนามบินบริสเบน"},"country_code":"AU","city_code":"BNE","cityName":"Brisbane"},{"code":"DRW","name":"Darwin","coordinates":{"lon":130.87752,"lat":-12.407805},"time_zone":"Australia/Darwin","name_translations":{"de":"Darwin","en":"Darwin","zh-CN":"达尔文机场","tr":null,"ru":"Дарвин","it":"Darwin","fr":"Darwin","es":"Darwin","th":"สนามบินดาร์วิน"},"country_code":"AU","city_code":"DRW","cityName":"Darwin"},{"code":"XIY","name":"Xianyang","coordinates":{"lon":108.75605,"lat":34.441154},"time_zone":"Asia/Shanghai","name_translations":{"de":"Xian Xianyang","en":"Xianyang","zh-CN":"西安咸阳机场","tr":"Xi'an Xianyang Havalimanı","ru":"Синьян","it":"Xianyang","fr":"Xianyang","es":"Xianyang","th":"ท่าอากาศยานนานาชาติซีอานเสียนหยาง"},"country_code":"CN","city_code":"SIA","cityName":"Xi'an"},{"code":"CTS","name":"Chitose","coordinates":{"lon":141.68134,"lat":42.78728},"time_zone":"Asia/Tokyo","name_translations":{"de":"Sapporo Chitose","en":"Chitose","zh-CN":"札幌千岁机场","tr":"Chitose","it":"Chitose","fr":"Chitose","es":"Chitose","th":"สนามบินชิโตเสะแห่งใหม่"},"country_code":"JP","city_code":"SPK","cityName":"Sapporo"},{"code":"CTU","name":"Shuangliu","coordinates":{"lon":103.9568,"lat":30.581135},"time_zone":"Asia/Shanghai","name_translations":{"de":"Chengdu","en":"Shuangliu","zh-CN":"成都双流机场","tr":null,"it":"Chengdu","fr":"Chengdu","es":"Chengdu","th":"สนามบินนานาชาติเฉิงตูชวงหลิว"},"country_code":"CN","city_code":"CTU","cityName":"Chengdu"},{"code":"HND","name":"Haneda Airport","coordinates":{"lon":139.78453,"lat":35.54907},"time_zone":"Asia/Tokyo","name_translations":{"de":"Tokio Haneda","en":"Haneda Airport","zh-CN":"东京羽田机场","tr":"Haneda","ru":"Аэропорт Ханэда","it":"Haneda","fr":"Haneda","es":"Haneda","th":"สนามบินฮาเนดะ"},"country_code":"JP","city_code":"TYO","cityName":"Tokyo"},{"code":"OOL","name":"Gold Coast (coolangatta)","coordinates":{"lon":153.51314,"lat":-28.166164},"time_zone":"Australia/Brisbane","name_translations":{"de":"Gold Coast","en":"Gold Coast (coolangatta)","zh-CN":"黄金海岸机场","tr":null,"it":"Gold Coast","fr":"Gold Coast","es":"Gold Coast","th":"สนามบินโกลด์โคสต์"},"country_code":"AU","city_code":"OOL","cityName":"Gold Coast"},{"code":"PUS","name":"Gimhae","coordinates":{"lon":128.94873,"lat":35.179317},"time_zone":"Asia/Seoul","name_translations":{"de":"Pusan","en":"Gimhae","zh-CN":"釜山金海机场","tr":"Gimhae","it":"Gimhae","fr":"Gimhae","es":"Gimhae","th":"สนามบินปูซาน"},"country_code":"KR","city_code":"PUS","cityName":"Busan"},{"code":"TRN","name":"Sandro Pertini (caselle)","coordinates":{"lon":7.643049,"lat":45.191456},